"id","name","latname","url","iata_code","country_id","region_id","latitude","longitude","priority","create_time","timezone_string","deletedAt","osm_type","osm_id"
"1","Екатеринбург","Yekaterinburg","yekaterinburg","SVX","1","88","56.83820583574083","60.60337509959938","1","2013-03-15 11:13:21","Asia/Yekaterinburg",NULL,"N","27503892"
"2","Иркутск","Irkutsk","irkutsk","IKT","1","20","52.272527","104.303284","1","2013-03-15 11:13:21","Asia/Irkutsk",NULL,"R","1430614"
"3","Казань","Kazan","kazan","KZN","1","93","55.79912","49.096985","1","2013-03-15 11:13:21","Europe/Moscow",NULL,"R","3437391"
"4","Краснодар","Krasnodar","krasnodar","KRR","1","34","45.035879","38.978577","1","2013-03-15 11:13:21","Europe/Moscow",NULL,"R","7373058"
"5","Красноярск","Krasnoyarsk","krasnoyarsk","KJA","1","35","56.002374","92.882995","1","2013-03-15 11:13:21","Asia/Krasnoyarsk",NULL,"R","1430616"
"6","Москва","Moscow","moscow","MOW","1","70","55.758959","37.616272","1","2013-03-15 11:13:21","Europe/Moscow",NULL,"R","2555133"
"7","Нижний Новгород","Nizhny Novgorod","nizhny-novgorod","GOJ","1","73","56.329635","43.999329","1","2013-03-15 11:13:21","Europe/Moscow",NULL,NULL,NULL
"9","Новокузнецк","Novokuznetsk","novokuznetsk","NOZ","1","29","53.73994","87.10968","1","2013-03-15 11:13:21","Asia/Novokuznetsk",NULL,"R","1437127"
"10","Новосибирск","Novosibirsk","novosibirsk","OVB","1","75","55.038411","82.918396","1","2013-03-15 11:13:21","Asia/Novosibirsk",NULL,NULL,NULL
"11","Омск","Omsk","omsk","OMS","1","76","54.989508064504","73.368497537337","1","2013-03-15 11:13:21","Asia/Omsk",NULL,"R","3442814"
"12","Орел","Orel","orel","OEL","1","78","52.966176","36.061706","1","2013-03-15 11:13:21","Europe/Moscow",NULL,"R","1776249"
"13","Оренбург","Orenburg","orenburg","REN","1","77","51.772259","55.09552","1","2013-03-15 11:13:21","Asia/Yekaterinburg",NULL,"W","166155507"
"14","Ростов-на-Дону","Rostov-on-Don","rostov-on-don","ROV","1","83","47.235609","39.714661","1","2013-03-15 11:13:21","Europe/Moscow",NULL,"R","1285772"
"15","Самара","Samara","samara","KUF","1","85","53.195538","50.101783","1","2013-03-15 11:13:21","Europe/Samara",NULL,"R","3368701"
"16","Тюмень","Tyumen","tyumen","TJM","1","98","57.157993","65.510559","1","2013-03-15 11:13:21","Asia/Yekaterinburg",NULL,"R","2049854"
"17","Уфа","Ufa","ufa","UFA","1","7","54.728744","55.985412","1","2013-03-15 11:13:21","Asia/Yekaterinburg",NULL,NULL,NULL
"18","Челябинск","Chelyabinsk","chelyabinsk","CEK","1","103","55.157846","61.401672","1","2013-03-15 11:13:21","Asia/Yekaterinburg",NULL,"R","4442556"
"19","Ижевск","Izhevsk","izhevsk","IJK","1","99","56.852775","53.211463","1","2013-03-15 11:13:21","Europe/Samara",NULL,"R","1670935"
"20","Волгоград","Volgograd","volgograd","VOG","1","13","48.722136","44.492798","1","2013-03-15 11:13:21","Europe/Volgograd",NULL,"R","3374767"
"21","Пермь","Perm","perm","PEE","1","80","58.000239","56.232605","1","2013-03-15 11:13:21","Asia/Yekaterinburg",NULL,"R","3437213"
"22","Владивосток","Vladivostok","vladivostok","VVO","1","81","43.126246","131.917419","1","2013-03-15 11:13:21","Asia/Vladivostok",NULL,NULL,NULL
"23","Хабаровск","Khabarovsk","khabarovsk","KHV","1","101","48.46","135.136","1","2013-03-15 11:13:21","Asia/Vladivostok",NULL,"R","2049848"
"24","Барнаул","Barnaul","barnaul","BAX","1","3","53.354814","83.753357","1","2013-03-15 11:13:21","Asia/Barnaul",NULL,"R","1550512"
"25","Златоуст","Zlatoust","zlatoust",NULL,"1","103","55.1858333","59.6747222",NULL,"2013-03-15 11:13:21","Asia/Yekaterinburg",NULL,"R","2295550"
"26","Магнитогорск","Magnitogorsk","magnitogorsk","MQF","1","103","53.3979304191855","58.98426879781596","2","2013-03-15 11:13:21","Asia/Yekaterinburg",NULL,"R","10185071"
"27","Пенза","Penza","penza","PEZ","1","79","53.1953","45.0124","1","2013-03-15 11:13:21","Europe/Moscow",NULL,"R","2552696"
"28","Каменск-Уральский","Kamensk Uralskiy","kamensk-uralskiy",NULL,"1","88","56.4279593","61.9081798",NULL,"2013-03-15 11:13:21","Asia/Yekaterinburg",NULL,"W","41332864"
"29","Ярославль","Yaroslavl","yaroslavl","IAR","1","110","57.6303","39.8653","2","2013-03-15 11:13:21","Europe/Moscow",NULL,"R","1701435"
"30","Томск","Tomsk","tomsk","TOF","1","95","56.466436","84.95636","1","2013-03-15 11:13:21","Asia/Tomsk",NULL,"R","7261645"
"31","Кемерово","Kemerovo","kemerovo","KEJ","1","29","55.3713","86.0996","1","2013-03-15 11:13:21","Asia/Novokuznetsk",NULL,"R","1312868"
"32","Чита","Chita","chita","HTA","1","200","52.033486793682","113.50088400733","1","2013-03-15 11:13:21","Asia/Yakutsk",NULL,"R","2637037"
"35","Калининград","Kaliningrad","kaliningrad","KGD","1","23","54.7131","20.5087","1","2013-03-15 11:13:21","Europe/Kaliningrad",NULL,"R","1674442"
"36","Астрахань","Astrakhan","astrakhan","ASF","1","6","46.355648","48.04779","1","2013-03-15 11:13:21","Europe/Astrakhan",NULL,"R","1853866"
"37","Санкт-Петербург","Saint Petersburg","saint-petersburg","LED","1","38","59.942081","30.310364","1","2013-03-15 11:13:21","Europe/Moscow",NULL,NULL,NULL
"38","Саратов","Saratov","saratov","RTW","1","86","51.5348","46.0245","1","2013-03-15 11:13:21","Europe/Volgograd",NULL,"R","3955288"
"39","Якутск","Yakutsk","yakutsk","YKS","1","108","62.0331","129.7884","1","2013-03-15 11:13:21","Asia/Yakutsk",NULL,"R","5325621"
"40","Южно-Сахалинск","Yuzhno Sakhalinsk","yuzhno-sakhalinsk","UUS","1","87","46.952512","142.721557","1","2013-03-15 11:13:21","Asia/Sakhalin",NULL,"R","2048160"
"41","Ульяновск","Ulyanovsk","ulyanovsk","ULY","1","100","54.3277","48.3728","1","2013-03-15 11:13:21","Europe/Ulyanovsk",NULL,"R","2049867"
"43","Липецк","Lipetsk","lipetsk","LPK","1","39","52.601546","39.589233","1","2013-03-15 11:13:21","Europe/Moscow",NULL,"R","3134925"
"44","Курган","Kurgan","kurgan","KRO","1","36","55.4537","65.3769","1","2013-03-15 11:13:21","Asia/Yekaterinburg",NULL,"R","4676636"
"45","Ханты-Мансийск","Khanty Mansiysk","khanty-mansiysk","HMA","1","246","61.0007","69.0062","1","2013-03-15 11:13:21","Asia/Yekaterinburg",NULL,"R","2339614"
"46","Архангельск","Arkhangelsk","arkhangelsk","ARH","1","5","64.537343","40.560608","1","2013-03-15 11:13:21","Europe/Moscow",NULL,"R","1330715"
"48","Сочи","Sochi","sochi","AER","1","34","43.607","39.7252","1","2013-03-15 11:13:21","Europe/Moscow",NULL,NULL,NULL
"52","Магадан","Magadan","magadan","GDX","1","40","59.55","150.8","1","2013-03-15 11:13:21","Asia/Magadan",NULL,"R","7619051"
"54","Сургут","Surgut","surgut","SGC","1","246","61.255179","73.393249","1","2013-03-15 11:13:21","Asia/Yekaterinburg",NULL,"R","4261682"
"56","Благовещенск","Blagoveschensk","blagoveschensk","BQS","1","4","50.2657","127.5211","1","2013-03-15 11:13:21","Asia/Yakutsk",NULL,"R","2049858"
"58","Йошкар-Ола","Joshkar Ola","joshkar-ola","JOK","1","41","56.639012","47.888489",NULL,"2013-03-15 11:13:21","Europe/Moscow",NULL,"R","2635526"
"59","Мурманск","Murmansk","murmansk","MMK","1","71","68.955038","33.100891","1","2013-03-15 11:13:21","Europe/Moscow",NULL,"R","3374641"
"60","Абакан","Abakan","abakan","ABA","1","102","53.730192","91.454773","2","2013-03-15 11:13:21","Asia/Krasnoyarsk",NULL,"R","2168517"
"61","Чебоксары","Cheboksary","cheboksary","CSY","1","106","56.125","47.2563","1","2013-03-15 11:13:21","Europe/Moscow",NULL,"R","3374548"
"62","Комсомольск-на-Амуре","Komsomolsk on Amur","komsomolsk-on-amur","KXK","1","101","50.55","137","1","2013-03-15 11:13:21","Asia/Vladivostok",NULL,"R","3337257"
"63","Уссурийск","Ussuriysk","ussuriysk",NULL,"1","81","43.8","131.95",NULL,"2013-03-15 11:13:21","Asia/Vladivostok",NULL,"W","55668530"
"65","Бийск","Biysk","biysk",NULL,"1","3","52.5333333","85.1666667",NULL,"2013-03-15 11:13:21","Asia/Barnaul",NULL,"R","1437129"
"66","Улан-Удэ","Ulan-Ude","ulan-ude","UUD","1","10","51.84019","107.604675","1","2013-03-15 11:13:21","Asia/Irkutsk",NULL,"R","1979944"
"67","Норильск","Norilsk","norilsk","NSK","1","35","69.329378","88.219511","1","2013-03-15 11:13:21","Asia/Krasnoyarsk",NULL,"W","76086275"
"70","Ставрополь","Stavropol","stavropol","STW","1","91","45.039761","41.983337","1","2013-03-15 11:13:21","Europe/Moscow",NULL,"R","6712557"
"72","Братск","Bratsk","bratsk","BTK","1","20","56.170635","101.590576",NULL,"2013-03-15 11:13:21","Asia/Irkutsk",NULL,"R","2380421"
"76","Нижневартовск","Nizhnevartovsk","nizhnevartovsk","NJC","1","246","60.9398","76.5788","1","2013-03-15 11:13:21","Asia/Yekaterinburg",NULL,"W","32080632"
"81","Воронеж","Voronezh","voronezh","VOZ","1","15","51.653133","39.19281","1","2013-03-15 11:13:21","Europe/Moscow",NULL,"R","3536492"
"82","Тверь","Tver","tver","KLD","1","94","56.85588","35.924377","1","2013-03-15 11:13:21","Europe/Moscow",NULL,"R","930950"
"83","Ноябрьск","Noyabrsk","noyabrsk","NOJ","1","109","63.201667","75.451667",NULL,"2013-03-15 11:13:21","Asia/Yekaterinburg",NULL,"R","3541357"
"89","Тольятти","Tolyatti","tolyatti","KUF","1","85","53.528228","49.404602","1","2013-03-15 11:13:21","Europe/Samara",NULL,"R","1345135"
"93","Находка","Nakhodka","nakhodka","VVO","1","81","42.776453","132.851257",NULL,"2013-03-15 11:13:21","Asia/Vladivostok",NULL,"R","7373939"
"94","Петропавловск-Камчатский","Petropavlovsk Kamchatsky","petropavlovsk-kamchatsky","PKC","1","26","53.058714","158.61497","1","2013-03-15 11:13:21","Asia/Kamchatka",NULL,"R","4139922"
"99","Набережные Челны","Naberezhnye Chelny","naberezhnye-chelny","NBC","1","93","55.728038","52.425842","1","2013-03-15 11:13:21","Europe/Moscow",NULL,"R","3437417"
"101","Курск","Kursk","kursk","URS","1","37","51.745058","36.182556","1","2013-03-15 11:13:21","Europe/Moscow",NULL,"R","3348896"
"112","Биробиджан","Birobidzhan","birobidzhan",NULL,"1","17","48.783333","132.933333",NULL,"2013-03-15 11:13:21","Asia/Vladivostok",NULL,"R","2048099"
"115","Владимир","Vladimir","vladimir","VLM","1","12","56.1199","40.4256","2","2013-03-15 11:13:21","America/La_Paz",NULL,"R","1991003"
"116","Рязань","Ryazan","ryazan","RZN","1","84","54.625443","39.740295","1","2013-03-15 11:13:21","Europe/Moscow",NULL,"R","1782722"
"122","Кострома","Kostroma","kostroma","KMW","1","33","57.778325","40.92865","2","2013-03-15 11:13:21","Europe/Moscow",NULL,"R","3536487"
"123","Тобольск","Tobolsk","tobolsk","TOX","1","98","58.186053","68.251648",NULL,"2013-03-15 11:13:21","Asia/Yekaterinburg",NULL,"R","3348770"
"125","Сыктывкар","Syktyvkar","syktyvkar","SCW","1","32","61.7016","50.7926","1","2013-03-15 11:13:21","Europe/Moscow",NULL,"R","3404703"
"127","Белгород","Belgorod","belgorod","EGO","1","8","50.594745","36.60553","1","2013-03-15 11:13:21","Europe/Moscow",NULL,"R","7790937"
"128","Тула","Tula","tula","TYA","1","97","54.198761","37.616272",NULL,"2013-03-15 11:13:21","Europe/Moscow",NULL,"R","2538203"
"132","Петрозаводск","Petrozavodsk","petrozavodsk","PES","1","28","61.784293","34.358826","1","2013-03-15 11:13:21","Europe/Moscow",NULL,"R","1701311"
"136","Киров","Kirov","kirov","KVX","1","31","58.589","49.6761","1","2013-03-15 11:13:21","Europe/Kirov",NULL,"R","2383150"
"137","Череповец","Cherepovets","cherepovets","CEE","1","14","59.131709","37.9953","1","2013-03-15 11:13:21","Europe/Moscow",NULL,"R","4022079"
"142","Салехард","Salekhard","salekhard","SLY","1","109","66.5333333","66.6","2","2013-03-15 11:13:21","Asia/Yekaterinburg",NULL,"W","53721105"
"148","Новороссийск","Novorossiysk","novorossiysk","NOI","1","34","44.7526","37.76",NULL,"2013-03-15 11:13:21","Europe/Moscow",NULL,"R","1477110"
"151","Псков","Pskov","pskov","PKV","1","82","57.825158","28.332825",NULL,"2013-03-15 11:13:21","Europe/Moscow",NULL,"R","1306984"
"155","Кисловодск","Kislovodsk","kislovodsk",NULL,"1","91","43.9137","42.7533","2","2013-03-15 11:13:21","Asia/Tbilisi",NULL,"R","12273850"
"158","Брянск","Bryansk","bryansk","BZK","1","9","53.242281179992","34.366379069334","2","2013-03-15 11:13:21","Europe/Moscow",NULL,"R","2401506"
"162","Великий Новгород","Velikiy Novgorod","velikiy-novgorod","NVR","1","74","58.546188","31.260681",NULL,"2013-03-15 11:13:21","Europe/Moscow",NULL,"R","2417529"
"163","Пятигорск","Pyatigorsk","pyatigorsk",NULL,"1","91","44.045352","43.054504","1","2013-03-15 11:13:21","Asia/Tbilisi",NULL,"R","2409550"
"166","Саранск","Saransk","saransk","SKX","1","42","54.1753","45.1676","2","2013-03-15 11:13:21","Europe/Moscow",NULL,"R","2307824"
"178","Нижний Тагил","Nizhny Tagil","nizhny-tagil",NULL,"1","88","57.901131","60.039368",NULL,"2013-03-15 11:13:21","Asia/Yekaterinburg",NULL,"R","1555410"
"181","Тамбов","Tambov","tambov","TBW","1","92","52.723984","41.412048","2","2013-03-15 11:13:21","Europe/Moscow",NULL,"R","4637058"
"202","Нягань","Nyagan","nyagan","NYA","1","246","62.1333333","65.3833333","2","2013-03-15 11:13:21","Asia/Yekaterinburg",NULL,"W","36238496"
"203","Новый Уренгой","Noviy Urengoy","noviy-urengoy","NUX","1","109","66.098246","76.68947","1","2013-03-15 11:13:21","Asia/Yekaterinburg",NULL,"R","2705251"
"207","Выборг","Vyborg","vyborg",NULL,"1","38","60.706255","28.766785",NULL,"2013-03-15 11:13:21","Europe/Helsinki",NULL,"R","1572051"
"211","Таганрог","Taganrog","taganrog","TGK","1","83","47.224045","38.887939","2","2013-03-15 11:13:21","Europe/Moscow",NULL,"R","1282148"
"215","Геленджик","Gelendzhik","gelendzhik","GDZ","1","34","44.5641","38.0814",NULL,"2013-03-15 11:13:21","Europe/Moscow",NULL,"R","2263494"
"216","Ирбит","Irbit","irbit",NULL,"1","88","57.6666667","63.0666667",NULL,"2013-03-15 11:13:21","Asia/Yekaterinburg",NULL,"R","10157769"
"217","Смоленск","Smolensk","smolensk","LNX","1","90","54.782632","32.046204","1","2013-03-15 11:13:21","Europe/Moscow",NULL,"R","3339993"
"235","Соликамск","Solikamsk","solikamsk",NULL,"1","80","59.6448288","56.7633061",NULL,"2013-03-15 11:13:21","Asia/Yekaterinburg",NULL,"R","3437172"
"239","Иваново","Ivanovo","ivanovo","IWA","1","18","56.9888","40.9823",NULL,"2013-03-15 11:13:21","Europe/Moscow",NULL,"R","389790"
"243","Ухта","Uhta","uhta","UCT","1","32","63.569586","53.672926",NULL,"2013-03-15 11:13:21","Europe/Moscow",NULL,"R","2738421"
"244","Шадринск","Shadrinsk","shadrinsk",NULL,"1","36","56.086827","63.641123",NULL,"2013-03-15 11:13:21","Asia/Yekaterinburg",NULL,"R","2600032"
"259","Черкесск","Cherkessk","cherkessk",NULL,"1","27","44.2221","42.0955",NULL,"2013-03-15 11:13:21","Asia/Tbilisi",NULL,"R","8245965"
"261","Элиста","Elista","elista","ESL","1","24","46.312986","44.253087",NULL,"2013-03-15 11:13:21","Europe/Moscow",NULL,"R","10241972"
"263","Горно-Алтайск","Gorno Altaysk","gorno-altaysk","RGK","1","2","51.95","85.95",NULL,"2013-03-15 11:13:21","Asia/Novokuznetsk",NULL,"R","1875750"
"264","Кызыл","Kyzyl","kyzyl","KYZ","1","96","51.721904","94.417388",NULL,"2013-03-15 11:13:21","Asia/Krasnoyarsk",NULL,"R","3511787"
"265","Анадырь","Anadyr","anadyr","DYR","1","107","64.733333","177.516667",NULL,"2013-03-15 11:13:21","Asia/Anadyr",NULL,"R","2316895"
"266","Орск","Orsk","orsk","OSW","1","77","51.2","58.566667","1","2013-03-15 11:13:21","Asia/Yekaterinburg",NULL,"R","1398504"
"267","Стрежевой","Strezhevoy","strezhevoy","SWT","1","95","60.7455636","77.573897",NULL,"2013-03-15 11:13:21","Asia/Tomsk",NULL,"W","129814975"
"268","Камышин","Kamyshin","kamyshin",NULL,"1","13","50.0666667","45.4",NULL,"2013-03-15 11:13:21","Europe/Volgograd",NULL,"R","3374769"
"269","Чусовой","Chusovoy","chusovoy",NULL,"1","80","58.2833333","57.8166667",NULL,"2013-03-15 11:13:21","Asia/Yekaterinburg",NULL,"W","90664182"
"270","Октябрьский (Башкортостан респ.)","Oktyabrsky","oktyabrsky",NULL,"1","7","54.48147","53.47103",NULL,"2013-03-15 11:13:21","Europe/Samara",NULL,"R","2730492"
"271","Нерюнгри","Neryungri","neryungri","NER","1","108","56.6697636","124.6493032","2","2013-03-15 11:13:21","Asia/Yakutsk",NULL,"R","2621225"
"272","Калуга","Kaluga","kaluga","KLF","1","25","54.512472","36.270447","2","2013-03-15 11:13:21","Europe/Moscow",NULL,"R","1926754"
"273","Серов","Serov","serov",NULL,"1","88","59.6","60.5666667",NULL,"2013-03-15 11:13:21","Asia/Yekaterinburg",NULL,"W","26300994"
"274","Артем","Artem","artem",NULL,"1","81","43.35","132.1833333",NULL,"2013-03-15 11:13:21","Asia/Vladivostok",NULL,"R","2071804"
"275","Краснотурьинск","Krasnoturinsk","krasnoturinsk",NULL,"1","88","59.7666667","60.2",NULL,"2013-03-15 11:13:21","Asia/Yekaterinburg",NULL,"W","42641244"
"276","Ялуторовск","Yalutorovsk","yalutorovsk",NULL,"1","98","56.654689","66.312206",NULL,"2013-03-15 11:13:21","Asia/Yekaterinburg",NULL,"R","1711462"
"277","Воркута","Vorkuta","vorkuta","VKT","1","32","67.5065","64.0556",NULL,"2013-03-15 11:13:21","Europe/Moscow",NULL,"R","9744962"
"278","Волгодонск","Volgodonsk","volgodonsk","ROV","1","83","47.528377","42.158368",NULL,"2013-03-15 11:13:21","Europe/Moscow",NULL,"R","5808030"
"279","Сальск","Salsk","salsk",NULL,"1","83","46.4725","41.5428",NULL,"2013-03-15 11:13:21","Europe/Volgograd",NULL,"R","3531585"
"280","Адлер","Adler","adler","AER","1",NULL,"43.447634","39.905025",NULL,"2013-03-15 11:13:21","Europe/Moscow","2021-03-15 08:18:13","N","207721468"
"281","Туапсе","Tuapse","tuapse",NULL,"1","34","44.1","39.083333",NULL,"2013-03-15 11:13:21","Europe/Simferopol",NULL,"R","3532696"
"282","Анапа","Anapa","anapa","AAQ","1","34","44.899854","37.330627","1","2013-03-15 11:13:21","Europe/Moscow",NULL,"R","1477115"
"283","Березники","Berezniki","berezniki",NULL,"1","80","59.3949571","56.8121554",NULL,"2013-03-15 11:13:21","Asia/Yekaterinburg",NULL,"N","191852866"
"284","Ковров","Kovrov","kovrov",NULL,"1","12","56.35","41.3166667",NULL,"2013-03-15 11:13:21","Europe/Moscow",NULL,"R","2350024"
"285","Нефтекамск","Neftekamsk","neftekamsk","NEF","1","7","56.0833333","54.25",NULL,"2013-03-15 11:13:21","Asia/Yekaterinburg",NULL,"R","2730507"
"287","Кудымкар","Kudymkar","kudymkar",NULL,"1","80","59.0106103","54.6653836",NULL,"2013-03-15 11:13:21","Europe/Kirov",NULL,"R","1442600"
"288","Печора","Pechora","pechora","PEX","1","32","65.15","57.2166667",NULL,"2013-03-15 11:13:21","Europe/Moscow",NULL,"R","3835109"
"289","Чайковский","Chaykovsky","chaykovsky",NULL,"1","80","56.764391","54.106314",NULL,"2013-03-15 11:13:21","Europe/Kirov",NULL,"R","1429283"
"290","Суздаль","Suzdal","suzdal",NULL,"1","12","56.4107","40.4551",NULL,"2013-03-15 11:13:21","Europe/Moscow",NULL,"R","1390203"
"291","Чебаркуль","Chebarkul","chebarkul",NULL,"1","103","54.9833333","60.3666667",NULL,"2013-03-15 11:13:21","Asia/Yekaterinburg",NULL,"R","10185422"
"292","Вологда","Vologda","vologda","VGD","1","14","59.213344","39.868469",NULL,"2013-03-15 11:13:21","Europe/Moscow",NULL,"R","1327509"
"293","Волхов","Volhov","volhov",NULL,"1","38","59.9166667","32.35",NULL,"2013-03-15 11:13:21","Europe/Helsinki",NULL,"R","1724199"
"294","Арсеньев","Arsenyev","arsenyev",NULL,"1","81","44.1666667","133.2666667",NULL,"2013-03-15 11:13:21","Asia/Vladivostok",NULL,"R","1647182"
"295","Ступино","Stupino","stupino",NULL,"1","70","54.54","38.04",NULL,"2013-03-15 11:13:21","Europe/Moscow",NULL,"W","37094231"
"296","Сергиев Посад","Sergiev Posad","sergiev-posad",NULL,"1","70","56.311357","38.127136",NULL,"2013-03-15 11:13:21","Europe/Moscow",NULL,"R","2458972"
"297","Александров","Alexandrov","alexandrov",NULL,"1","12","56.3898","38.7224",NULL,"2013-03-15 11:13:21","Europe/Moscow",NULL,"R","1430332"
"298","Азов","Azov","azov",NULL,"1","83","47.108644","39.434509",NULL,"2013-03-15 11:13:21","Europe/Zaporozhye",NULL,"R","1118893"
"299","Нефтеюганск","Nefteyugansk","nefteyugansk","NFG","1","246","61.0988","72.6018","2","2013-03-15 11:13:21","Asia/Yekaterinburg",NULL,"W","42969693"
"300","Белорецк","Beloretsk","beloretsk","BCX","1","7","53.9673","58.41679",NULL,"2013-03-15 11:13:21","Asia/Yekaterinburg",NULL,"R","1762544"
"301","Миасс","Miass","miass","CEK","1","103","55.05","60.1",NULL,"2013-03-15 11:13:21","Asia/Yekaterinburg",NULL,"W","31001801"
"302","Ишим","Ishim","ishim",NULL,"1","98","56.1166667","69.5",NULL,"2013-03-15 11:13:21","Asia/Omsk",NULL,"R","3348768"
"303","Стерлитамак","Sterlitamak","sterlitamak",NULL,"1","7","53.633333","55.95",NULL,"2013-03-15 11:13:21","Asia/Aqtobe",NULL,"R","3337241"
"304","Альметьевск","Almetyevsk","almetyevsk",NULL,"1","93","54.89859","52.314477",NULL,"2013-03-15 11:13:21","Europe/Samara",NULL,"R","1687059"
"305","Бузулук","Buzuluk","buzuluk",NULL,"1","77","52.766667","52.266667",NULL,"2013-03-15 11:13:21","Europe/Samara",NULL,"R","3470717"
"306","Сызрань","Syzran","syzran","ZZZ","1","85","53.1666667","48.4666667","2","2013-03-15 11:13:21","Europe/Samara",NULL,"R","2410555"
"307","Михайловка","Mikhaylovka","mikhaylovka",NULL,"1","13","50.0667","43.25",NULL,"2013-03-15 11:13:21","Europe/Volgograd",NULL,"R","1109288"
"308","Балаково","Balakovo","balakovo",NULL,"1","86","52.021093","47.805636",NULL,"2013-03-15 11:13:21","Europe/Volgograd",NULL,"R","4230155"
"309","Владикавказ","Vladikavkaz","vladikavkaz","OGZ","1","89","43.03133","44.676189","2","2013-03-15 11:13:21","Europe/Moscow",NULL,"R","8901223"
"310","Армавир","Armavir","armavir",NULL,"1","34","45","41.116667",NULL,"2013-03-15 11:13:21","Asia/Tbilisi",NULL,"R","3476238"
"311","Ейск","Yeysk","yeysk",NULL,"1","34","46.7","38.2833333","2","2013-03-15 11:13:21","Europe/Zaporozhye",NULL,"R","12337032"
"312","Майкоп","Maykop","maykop",NULL,"1","1","44.6","40.0833333",NULL,"2013-03-15 11:13:21","Europe/Simferopol",NULL,"R","3441283"
"313","Тихорецк","Tikhoretsk","tikhoretsk",NULL,"1","34","45.85","40.1166667",NULL,"2013-03-15 11:13:21","Europe/Zaporozhye",NULL,"R","5359937"
"314","Обнинск","Obninsk","obninsk",NULL,"1","25","55.100173","36.624137",NULL,"2013-03-15 11:13:21","Europe/Moscow",NULL,"R","3396088"
"315","Невинномысск","Nevinnomysk","nevinnomysk",NULL,"1","91","44.6333333","41.95",NULL,"2013-03-15 11:13:21","Asia/Tbilisi",NULL,"R","9986400"
"316","Татарск","Tatarsk","tatarsk",NULL,"1","75","55.2166667","75.9666667",NULL,"2013-03-15 11:13:21","Asia/Omsk",NULL,"R","4478007"
"317","Калачинск","Kalachinsk","kalachinsk",NULL,"1","76","55.05","74.5666667",NULL,"2013-03-15 11:13:21","Asia/Omsk",NULL,"R","8354584"
"318","Называевск","Nazyvaevsk","nazyvaevsk",NULL,"1","76","55.5666667","71.35",NULL,"2013-03-15 11:13:21","Asia/Omsk",NULL,"W","132503726"
"320","Колпашино","Kolpashino","kolpashino",NULL,"1",NULL,"0","0",NULL,"2013-03-15 11:13:21","UTC","2021-03-15 08:18:13",NULL,NULL
"321","Асино","Asino","asino",NULL,"1","95","57","86.15",NULL,"2013-03-15 11:13:21","Asia/Tomsk",NULL,"R","7127142"
"322","Анжеро-Судженск","Anzhero-Sudzhensk","anzhero-sudzhensk",NULL,"1","29","56.0833333","86.0333333",NULL,"2013-03-15 11:13:21","Asia/Tomsk",NULL,"R","4589735"
"323","Северск","seversk","seversk",NULL,"1","95","48.868805","38.082744",NULL,"2013-03-15 11:13:21","Europe/Zaporozhye",NULL,"W","174784910"
"324","Болотное","Bolotnoe","bolotnoe",NULL,"1","75","55.6666667","84.4",NULL,"2013-03-15 11:13:21","Asia/Tomsk",NULL,"W","190742179"
"325","Тара","Tara","tara",NULL,"1","76","56.9","74.3666667",NULL,"2013-03-15 11:13:21","Asia/Omsk",NULL,"R","7226665"
"326","Усть-Илимск","Ust ilimsk","ust-ilimsk","UIK","1","20","58","102.6666667",NULL,"2013-03-15 11:13:21","Asia/Irkutsk",NULL,"R","2380462"
"327","Усть-Кут","Ust kut","ust-kut","UKX","1","20","56.8","105.833333",NULL,"2013-03-15 11:13:21","Asia/Irkutsk",NULL,"W","104642516"
"328","Игарка","Igarka","igarka","IAA","1","35","67.4666667","86.5833333",NULL,"2013-03-15 11:13:21","Asia/Krasnoyarsk",NULL,"R","4605228"
"329","Ангарск","Angarsk","angarsk",NULL,"1","20","52.526421","103.897474",NULL,"2013-03-15 11:13:21","Asia/Irkutsk",NULL,"R","2623018"
"330","Листвянка","Listvyanka","listvyanka",NULL,"1","20","51.851221","104.869419",NULL,"2013-03-15 11:13:21","Asia/Irkutsk",NULL,"R","4171900"
"331","Усть-Ордынский","Ust Ordynsky","ust-ordynsky",NULL,"1","20","52.8081092","104.77518",NULL,"2013-03-15 11:13:21","Asia/Irkutsk",NULL,"R","8171612"
"332","Слюдянка","Slyudyanka","slyudyanka",NULL,"1","20","51.6666667","103.7",NULL,"2013-03-15 11:13:21","Asia/Irkutsk",NULL,"R","2185308"
"333","Тюкалинск","Tyukalinsk","tyukalinsk",NULL,"1","76","55.870506","72.195506",NULL,"2013-03-15 11:13:21","Asia/Omsk",NULL,"R","5583306"
"334","Обь","Ob","ob",NULL,"1","75","55.001674","82.9348231",NULL,"2013-03-15 11:13:21","Asia/Novosibirsk",NULL,"R","1701924"
"335","Бердск","Berdsk","berdsk",NULL,"1","75","54.755100250244","83.096702575684","2","2013-03-15 11:13:21","Asia/Novosibirsk",NULL,"R","3566768"
"336","Колывань","Kolyvan","kolyvan",NULL,"1","75","55.3063985","82.7394868",NULL,"2013-03-15 11:13:21","Asia/Novosibirsk",NULL,"R","7168072"
"337","Черепаново","Cherepanovo","cherepanovo",NULL,"1","75","54.2166667","83.3666667",NULL,"2013-03-15 11:13:21","Asia/Novosibirsk",NULL,"R","3569650"
"338","Куйбышев","Kuibishev","kuibishev","das","1",NULL,"123","123",NULL,"2013-03-15 11:13:21","America/Yellowknife","2021-03-15 08:18:13","R","3368701"
"339","Тогучин","Toguchin","toguchin",NULL,"1","75","55.2391667","84.3891667",NULL,"2013-03-15 11:13:21","Asia/Novosibirsk",NULL,"W","51285629"
"340","Чулым","Chulym","chulym",NULL,"1","75","55.091258","80.963288",NULL,"2013-03-15 11:13:21","Asia/Novosibirsk",NULL,"R","7657371"
"341","Искитим","Iskitim","iskitim",NULL,"1","75","54.6333333","83.3",NULL,"2013-03-15 11:13:21","Asia/Novosibirsk",NULL,"R","6725242"
"343","Барабинск","Barabinsk","barabinsk",NULL,"1","75","55.35","78.35",NULL,"2013-03-15 11:13:21","Asia/Novosibirsk",NULL,"W","51229201"
"344","Белокуриха","Belokurikha","belokurikha",NULL,"1","3","52","84.983333",NULL,"2013-03-15 11:13:21","Asia/Barnaul",NULL,"R","3442037"
"346","Чемал","Chemal","chemal",NULL,"1","2","51.4139","86.0146",NULL,"2013-03-15 11:13:21","Asia/Barnaul",NULL,"R","6535361"
"347","Прокопьевск","Prokopyevsk","prokopyevsk",NULL,"1","29","53.53","86.43",NULL,"2013-03-15 11:13:21","Asia/Novokuznetsk",NULL,"R","1735836"
"348","Ленинск-Кузнецкий","Leninsk-Kuznetsky","leninsk-kuznetsky",NULL,"1","29","54.6575","86.1616667",NULL,"2013-03-15 11:13:21","Asia/Novokuznetsk",NULL,"W","92753879"
"349","Междуреченск","Mezhdurechensk","mezhdurechensk",NULL,"1","29","53.7269665","88.0783471",NULL,"2013-03-15 11:13:21","Asia/Novokuznetsk",NULL,"R","6729518"
"350","Шерегеш","Sheregesh","sheregesh",NULL,"1","29","52.9269506","87.9926205",NULL,"2013-03-15 11:13:21","Asia/Novokuznetsk",NULL,"W","128295745"
"351","Саяногорск","Sayanogorsk","sayanogorsk",NULL,"1","102","53.088382","91.406055",NULL,"2013-03-15 11:13:21","Asia/Novokuznetsk",NULL,"W","73278205"
"352","Минусинск","Minusinsk","minusinsk",NULL,"1","35","53.7","91.6833333",NULL,"2013-03-15 11:13:21","Asia/Krasnoyarsk",NULL,"R","4016274"
"353","Черногорск","Chernogorsk","chernogorsk",NULL,"1","102","53.8236111","91.2841667",NULL,"2013-03-15 11:13:21","Asia/Krasnoyarsk",NULL,"W","37294912"
"354","Дудинка","Dudinka","dudinka",NULL,"1","35","69.4","86.1833333",NULL,"2013-03-15 11:13:21","Asia/Tomsk",NULL,"W","72231660"
"355","Дивногорск","Divnogorsk","divnogorsk","ZZZ","1","35","55.95","92.3833333",NULL,"2013-03-15 11:13:21","Asia/Krasnoyarsk",NULL,"R","6448213"
"356","Канск","Kansk","kansk",,"1","35","56.2","95.7",NULL,"2013-03-15 11:13:21","Asia/Krasnoyarsk",NULL,"R","3511826"
"357","Зеленогорск","Zelenogorsk","zelenogorsk",NULL,"1","38","60.196986","29.705876",NULL,"2013-03-15 11:13:21","Europe/Helsinki",NULL,"R","3511823"
"358","Ачинск","Achinsk","achinsk","ACS","1","35","56.2666667","90.5",NULL,"2013-03-15 11:13:21","Asia/Krasnoyarsk",NULL,"R","1153174"
"359","Бородино","Borodino","borodino",NULL,"1","35","55.9","94.9",NULL,"2013-03-15 11:13:21","Asia/Krasnoyarsk",NULL,"R","4072643"
"360","Енисейск","Eniseysk","eniseysk","EIE","1","35","58.4501","92.1867687",NULL,"2013-03-15 11:13:21","Asia/Krasnoyarsk",NULL,"R","3511822"
"361","Железногорск","Zheleznogorsk","zheleznogorsk",NULL,"1","37","52.333333","35.366667",NULL,"2013-03-15 11:13:21","Europe/Kiev",NULL,"R","1430615"
"363","Лесосибирск","Lesosibirsk","lesosibirsk",NULL,"1","35","58.2333333","92.4833333",NULL,"2013-03-15 11:13:21","Asia/Krasnoyarsk",NULL,"R","3477283"
"364","Назарово","Nazarovo","nazarovo",NULL,"1","35","56","90.3833333",NULL,"2013-03-15 11:13:21","Asia/Krasnoyarsk",NULL,"R","3511831"
"365","Сосновоборск","Sosnovoborsk","sosnovoborsk",NULL,"1","79","53.296951","46.251379",NULL,"2013-03-15 11:13:21","Europe/Ulyanovsk",NULL,"R","3398304"
"366","Теплый Стан","Teply Stan","teply-stan",NULL,"1",NULL,"53.9793","50.1672",NULL,"2013-03-15 11:13:21","Europe/Samara","2021-03-15 08:18:13","W","283723614"
"367","Карасук","Karasuk","karasuk",NULL,"1","75","53.7333333","78.0333333",NULL,"2013-03-15 11:13:21","Asia/Omsk",NULL,"R","4155089"
"368","Купино","Kupino","kupino",NULL,"1","75","54.3666667","77.3",NULL,"2013-03-15 11:13:21","Asia/Omsk",NULL,"W","114733385"
"369","Каргат","Kargat","kargat",NULL,"1","75","55.1955556","80.2811111",NULL,"2013-03-15 11:13:21","Asia/Novosibirsk",NULL,"W","97387167"
"379","Елабуга","Elabuga","elabuga",NULL,"1","93","55.761958","52.061877",NULL,"2013-03-15 11:13:21","Europe/Ulyanovsk",NULL,"R","1716734"
"380","Переславль-Залесский","Pereslavl Zalessky","pereslavl-zalessky",NULL,"1","110","56.7362","38.8542",NULL,"2013-03-15 11:13:21","Europe/Moscow",NULL,"R","3354167"
"382","Ольгинка","Olginka","olginka",NULL,"1","34","44.2103","38.8904",NULL,"2013-03-15 11:13:21","Europe/Simferopol",NULL,"R","1633509"
"383","Нальчик","Nalchik","nalchik","NAL","1","21","43.4619","43.6501",NULL,"2013-03-15 11:13:21","Europe/Moscow",NULL,"R","8787138"
"384","Плёс","Plyos","plyos",NULL,"1","18","57.4565","41.516",NULL,"2013-03-15 11:13:21","Europe/Moscow",NULL,"W","114591216"
"385","Ростов Великий","Rostov","rostov",NULL,"1","110","57.1994","39.4584","2","2013-03-15 11:13:21","Europe/Moscow",NULL,"R","1285772"
"386","Великие Луки","Velikie Luki","velikie-luki","VLU","1","82","56.3333333","30.5333333",NULL,"2013-03-15 11:13:21","Europe/Moscow",NULL,"R","1306985"
"387","Валдай","Valday","valday",NULL,"1","74","57.9734","33.2392",NULL,"2013-03-15 11:13:21","Europe/Moscow",NULL,"R","3112925"
"388","Углич","Uglich","uglich",NULL,"1","110","57.5199","38.3334",NULL,"2013-03-15 11:13:21","Europe/Moscow",NULL,"W","32728504"
"389","Ессентуки","Essentuki","essentuki",NULL,"1","91","44.033333","42.85",NULL,"2013-03-15 11:13:21","Asia/Tbilisi",NULL,"R","7162386"
"390","Боровичи","Borovichi","borovichi",NULL,"1","74","58.395377","33.900767",NULL,"2013-03-15 11:13:21","Europe/Moscow",NULL,"R","3436505"
"391","Радужный","Raduzhny","raduzhny","ZZZ","1","246","62.1063","77.4804","2","2013-03-15 11:13:21","Asia/Tomsk",NULL,"W","71305565"
"392","Россошь","Rossosh","rossosh",NULL,"1","15","50.2015976","39.5906113",NULL,"2013-03-15 11:13:21","Europe/Volgograd",NULL,"R","4768092"
"393","Старая Русса","Staraya Russa","staraya-russa",NULL,"1","74","57.9881","31.3461",NULL,"2013-03-15 11:13:21","Europe/Tallinn",NULL,"R","2872044"
"394","Усть-Качка","Ust Kachka","ust-kachka",NULL,"1","80","58.0052","55.6799",NULL,"2013-03-15 11:13:21","Asia/Yekaterinburg",NULL,"R","3719262"
"395","Фатеж","Fatezh","fatezh",NULL,"1","37","52.0918","35.8628",NULL,"2013-03-15 11:13:21","Europe/Kiev",NULL,"R","3348920"
"396","Северобайкальск","Severobaykalsk","severobaykalsk",NULL,"1","10","55.6400198","109.3287488","1","2013-03-15 11:13:21","Asia/Chita",NULL,"R","1899007"
"397","Яровое","Yarovoe","yarovoe",NULL,"1","3","52.9333333","78.5833333",NULL,"2013-03-15 11:13:21","Asia/Barnaul",NULL,"R","3442041"
"398","Советский","Sovetsky","sovetsky",NULL,"1","41","56.75","48.483333",NULL,"2013-03-15 11:13:21","Europe/Kirov",NULL,"R","2379562"
"399","Пудож","Pudozh","pudozh",NULL,"1","28","61.8","36.5333333",NULL,"2013-03-15 11:13:21","Europe/Helsinki",NULL,"R","2304148"
"400","Рубцовск","Rubtsovsk","rubtsovsk",NULL,"1","3","51.5333333","81.2",NULL,"2013-03-15 11:13:21","Asia/Barnaul",NULL,"R","1442483"
"401","Киев","Kyiv","kiev","IEV","2",NULL,"50.454658508301","30.52379989624","1","2013-03-15 11:13:21","Europe/Kiev",NULL,"R","421866"
"402","Донецк","Donetsk","donetsk","DOK","1","8229","48.0158753","37.8013407",NULL,"2013-03-15 11:13:21","Europe/Zaporozhye",NULL,"R","1413957"
"403","Запорожье","Zaporizhia","zaporizhia",NULL,"1",NULL,"47.822891235352","35.190311431885","1","2013-03-15 11:13:21","Europe/Zaporozhye",NULL,"R","1418311"
"404","Львов","Lviv","lvov","LWO","2",NULL,"49.838260650635","24.023239135742","1","2013-03-15 11:13:21","Europe/Uzhgorod",NULL,"R","2032280"
"405","Одесса","Odesa","odessa","ODS","2",NULL,"46.477470397949","30.732620239258",NULL,"2013-03-15 11:13:21","Europe/Simferopol",NULL,"R","1413934"
"406","Харьков","Kharkiv","kharkiv","HRK","2",NULL,"49.980808258057","36.25271987915","1","2013-03-15 11:13:21","Europe/Zaporozhye",NULL,"R","3154746"
"407","Ялта","Yalta","yalta","ЯЛТ","1","240","44.500129699707","34.161479949951",NULL,"2013-03-15 11:13:21","Europe/Simferopol",NULL,"R","3005461"
"408","Тарко-Сале","Tarko Sale","tarko-sale","TQL","1","109","64.9150551976661","77.77036867446895",NULL,"2013-03-15 11:13:21","Asia/Yekaterinburg",NULL,"R","12536128"
"409","Сарапул","Sarapul","sarapul",NULL,"1","99","56.4666667","53.8",NULL,"2013-03-15 11:13:21","Europe/Kirov",NULL,"R","4788912"
"410","Уват","Uvat","uvat",NULL,"1","98","59.1429","68.8855",NULL,"2013-03-15 11:13:21","Asia/Omsk",NULL,"R","12469260"
"412","Сортавала","Sortavala","sortavala",NULL,"1","28","61.7","30.6666667",NULL,"2013-03-15 11:13:21","Europe/Helsinki",NULL,"R","3225729"
"414","Надым","Nadym","nadym","NYM","1","109","65.5349378","72.5450142",NULL,"2013-03-15 11:13:21","Asia/Yekaterinburg",NULL,"R","7677449"
"415","Шарыпово","Sharypovo","sharypovo",NULL,"1","35","55.5333333","89.2",NULL,"2013-03-15 11:13:21","Asia/Krasnoyarsk",NULL,"R","4619354"
"416","Курумоч","Kurumoch","kurumoch",NULL,"1","85","53.4865","50.0464",NULL,"2013-03-15 11:13:21","Europe/Samara",NULL,NULL,NULL
"417","Сегежа","Segezha","segezha",NULL,"1","28","63.7433333","34.3030556",NULL,"2013-03-15 11:13:21","Europe/Helsinki",NULL,"R","1020580"
"418","Костомукша","Kostomuksha","kostomuksha",NULL,"1","28","64.5724569","30.5733754",NULL,"2013-03-15 11:13:21","Europe/Helsinki",NULL,"W","240699975"
"419","Кунгур","Kungur","kungur",NULL,"1","80","57.4333333","56.9333333",NULL,"2013-03-15 11:13:21","Asia/Yekaterinburg",NULL,"R","3437242"
"420","Волжский","Volzhskiy","volzhskiy",NULL,"1","13","48.809091","44.750749",NULL,"2013-03-15 11:13:21","Europe/Volgograd",NULL,"R","3374737"
"421","Белово","Belovo","belovo",NULL,"1","29","54.4166667","86.3",NULL,"2013-03-15 11:13:21","Asia/Novokuznetsk",NULL,"R","3635137"
"422","Югорск","Yugorsk","yugorsk",NULL,"1","246","61.314917","63.331964",NULL,"2013-03-15 11:13:21","Asia/Yekaterinburg",NULL,"R","3374908"
"423","Губаха","Gubaha","gubaha",NULL,"1","80","58.8584072","57.57784",NULL,"2013-03-15 11:13:21","Asia/Yekaterinburg",NULL,"R","7323427"
"424","Урай","Urai","urai","URJ","1","246","60.1333333","64.8",NULL,"2013-03-15 11:13:21","Asia/Yekaterinburg",NULL,"W","68169928"
"425","Глазов","Glazov","glazov",NULL,"1","99","58.133333","52.65",NULL,"2013-03-15 11:13:21","Europe/Kirov",NULL,"R","3442022"
"426","Светлогорск","Svetlogorsk","svetlogorsk","СЕГ","1","23","54.938292","20.158213",NULL,"2013-03-15 11:13:21","Europe/Kaliningrad",NULL,"R","1966411"
"427","Старый Оскол","Staryi Oskol","staryi-oskol","СОЛ","1","8","51.299038","37.836734",NULL,"2013-03-15 11:13:21","Europe/Zaporozhye",NULL,"R","2048253"
"428","Качканар","Kachkanar","kachkanar",NULL,"1","88","58.6994","59.49",NULL,"2013-03-15 11:13:21","Asia/Yekaterinburg",NULL,"W","31001611"
"429","Нижнекамск","Nizhnekamsk","nizhnekamsk","KZN","1","93","55.6265","51.8239",NULL,"2013-03-15 11:13:21","Europe/Moscow",NULL,"R","956596"
"430","Астана","Astana","astana","NQZ","3","22","51.180099487305","71.445976257324","1","2013-03-15 11:13:21","Asia/Aqtau",NULL,NULL,NULL
"431","Троицк","Troitsk","troitsk",NULL,"1","103","54.09875241726867","61.56904645505975",NULL,"2013-03-15 11:13:21","Asia/Qostanay",NULL,"R","10926397"
"432","Озеры","ozery","ozery",NULL,"1","70","54.854087","38.559824",NULL,"2013-03-15 11:13:21","Europe/Moscow",NULL,"W","157532238"
"433","Саянск","Sayansk","sayansk",NULL,"1","20","54.1191","102.1774",NULL,"2013-03-15 11:13:21","Asia/Irkutsk",NULL,"W","262826261"
"434","Дубна","Dubna","dubna",NULL,"1","70","56.7333333","37.1666667",NULL,"2013-03-15 11:13:21","Europe/Moscow",NULL,"R","1476253"
"435","Среднеуральск","Sredneuralsk","sredneuralsk",NULL,"1","88","56.998603","60.4832581",NULL,"2013-03-15 11:13:21","Asia/Yekaterinburg",NULL,"R","10157965"
"436","Губкинский","Gubkinsky","gubkinsky",NULL,"1","109","51.2824173","37.543495",NULL,"2013-03-15 11:13:21","Europe/Zaporozhye",NULL,"R","1761332"
"437","Махачкала","Mahachkala","mahachkala","MCX","1","16","42.97279","47.49404","2","2013-03-15 11:13:21","Europe/Moscow",NULL,"R","4632505"
"438","Алматы","Almaty","almaty","ALA","3","22","43.256538391113","76.928482055664","1","2013-03-15 11:13:21","Asia/Aqtau",NULL,"R","2465058"
"439","Елец","Elets","elets",NULL,"1","39","52.622503","38.505263","2","2013-03-15 11:13:21","Europe/Moscow",NULL,"R","4656458"
"440","Когалым","Kogalim","kogalim","KGP","1","246","62.2401","74.5269","2","2013-03-15 11:13:21","Asia/Yekaterinburg",NULL,"R","1594872"
"441","Сибай","Sibai","sibai",NULL,"1","7","52.7","58.65",NULL,"2013-03-15 11:13:21","Asia/Aqtobe",NULL,"R","2552689"
"442","Сатка","Satka","satka",NULL,"1","103","55.0410134","58.9987587",NULL,"2013-03-15 11:13:21","Asia/Yekaterinburg",NULL,"R","1655741"
"443","Дельнереченск","Delnerechensk","delnerechensk",NULL,"1","81","0","0",NULL,"2013-03-15 11:13:21","UTC","2021-03-15 08:18:13",NULL,NULL
"444","Новотроицк","Novotroitsk","novotroitsk",NULL,"1","77","51.2","58.3166667",NULL,"2013-03-15 11:13:21","Asia/Aqtobe",NULL,"W","148481951"
"447","Вольск","Volsk","volsk",NULL,"1","86","52.045967","47.387317",NULL,"2013-03-15 11:13:21","Europe/Saratov",NULL,"R","3148208"
"448","Кондопога","Kondopoga","kondopoga",NULL,"1","28","62.2","34.2666667",NULL,"2013-03-15 11:13:21","Europe/Helsinki",NULL,"R","3458329"
"449","Лесной пос.","Lesnoy","lesnoy",NULL,"1","88","58.633974","59.783215",NULL,"2013-03-15 11:13:21","Asia/Yekaterinburg",NULL,"R","3776911"
"450","Актобе","Aktobe","aktobe","AKX","3",NULL,"50.299650668133","57.157612800598","1","2013-03-15 11:13:21","Asia/Aqtau",NULL,"R","2485052"
"451","Муром","Murom","murom",NULL,"1","12","55.575933","42.049051",NULL,"2013-03-15 11:13:21","Europe/Moscow",NULL,"R","7236155"
"452","Королёв","Korolev","korolev",NULL,"1","70","55.9166667","37.85",NULL,"2013-03-15 11:13:21","Europe/Moscow",NULL,"R","184109"
"453","Большой Камень","Bolshoy Kamen","bolshoy-kamen",NULL,"1","81","43","132",NULL,"2013-03-15 11:13:21","Asia/Vladivostok",NULL,"R","6039852"
"454","Караганда","Karaganda","karaganda","KGF","3",NULL,"49.807723534495","73.092830963135","1","2013-03-15 11:13:21","Asia/Aqtau",NULL,"R","3577787"
"455","Павлодар","Pavlodar","pavlodar","PWQ","3",NULL,"52.303616997993","76.970554394531","2","2013-03-15 11:13:21","Asia/Aqtau",NULL,"W","170089891"
"456","Уральск","Uralsk","uralsk","URA","3",NULL,"51.238811831332","51.404407234192","2","2013-03-15 11:13:21","Asia/Aqtau",NULL,"R","3767383"
"457","Усть-Каменогорск (Оскемен)","Ust kamenogorsk","ust-kamenogorsk","UKK","3",NULL,"49.966974","82.61935","2","2013-03-15 11:13:21","Asia/Aqtau",NULL,"R","10062283"
"458","Шымкент","Shymkent","shymkent","CIT","3",NULL,"42.328951390329","69.590712890624","2","2013-03-15 11:13:21","Asia/Aqtau",NULL,"R","1763399"
"459","Атырау","Atyrau","atyrau","GUW","3",NULL,"47.07","51.53","2","2013-03-15 11:13:21","Asia/Aqtau",NULL,"R","9347854"
"460","Бухара","Bukhara","bukhara","BHK","4",NULL,"39.4629","64.2543",NULL,"2013-03-15 11:13:21","Asia/Samarkand",NULL,"W","45589944"
"461","Самарканд","Samarkand","samarkand","SKD","4",NULL,"39.39","66.57",NULL,"2013-03-15 11:13:21","Asia/Samarkand",NULL,"N","245542318"
"462","Ташкент","Tashkent","tashkent","TAS","4",NULL,"41.3","69.24","1","2013-03-15 11:13:21","Asia/Tashkent",NULL,NULL,NULL
"463","Ургенч","Urgench","urgench","UGC","4",NULL,"41.33","60.38",NULL,"2013-03-15 11:13:21","Asia/Samarkand",NULL,"W","110132970"
"464","Фергана","Fergana","fergana","FEG","4",NULL,"40.2311","71.4711",NULL,"2013-03-15 11:13:21","Asia/Tashkent",NULL,"W","27143452"
"465","Дальнегорск","Dalnegorsk","dalnegorsk","DHG","1","81","44.5573954","135.6227187",NULL,"2013-03-15 11:13:21","Asia/Vladivostok",NULL,"W","92832692"
"466","Славгород","Slavgorod","slavgorod",NULL,"1","3","53","78",NULL,"2013-03-15 11:13:21","Asia/Omsk",NULL,"R","3442040"
"468","Юрюзань","Uryuzan","uryuzan",NULL,"1","103","54.854646","58.422662",NULL,"2013-03-15 11:13:21","Asia/Yekaterinburg",NULL,"N","251532339"
"469","Куйбышев","Kuibyshev","kuibyshev",NULL,"1","75","55.2701","78.1827",NULL,"2013-03-15 11:13:21","Asia/Novosibirsk",NULL,"R","3368701"
"471","Таллин","Tallinn","tallinn","TLL","5",NULL,"59.427128883936014","24.725658054600274",NULL,"2013-03-15 11:13:21","Europe/Tallinn",NULL,"R","2164745"
"472","Вильнюс","Vilnius","vilnius","VNO","7",NULL,"54.68961002759182","25.272254943847656","1","2013-03-15 11:13:21","Europe/Vilnius",NULL,"R","1529146"
"473","Рига","Riga","riga","RIX","6",NULL,"56.94599914550781","24.10589027404785","1","2013-03-15 11:13:21","Europe/Riga",NULL,"R","1554509"
"474","Кишинев","Kishinev","kishinev","RMO","8",NULL,"47.005561828613","28.857500076294","1","2013-03-15 11:13:21","Europe/Chisinau",NULL,"R","1748490"
"475","Курессааре","Kuressaare","kuressaare","URE","5",NULL,"58.2480583190918","22.503889083862305",NULL,"2013-03-15 11:13:21","Europe/Tallinn",NULL,NULL,NULL
"476","Истра","Istra","istra",NULL,"1","70","55.9166667","36.8666667",NULL,"2013-03-15 11:13:21","Europe/Moscow",NULL,"R","1202659"
"477","Мирный","Mirniy","mirniy","MJZ","1","108","62.533333","113.95",NULL,"2013-03-15 11:13:21","Asia/Yakutsk",NULL,"W","37359681"
"478","Северодвинск","Severodvinsk","severodvinsk",NULL,"1","5","64.55829635296435","39.820325830351536",NULL,"2013-03-15 11:13:21","Europe/Kirov",NULL,"R","2064358"
"479","Славянка","Slavyanka","slavyanka",NULL,"1","81","42.8705","131.3716",NULL,"2013-03-15 11:13:21","Asia/Vladivostok",NULL,NULL,NULL
"480","Котлас","Kotlas","kotlas","KSZ","1","5","61.2585724","46.6270206",NULL,"2013-03-15 11:13:21","Europe/Moscow",NULL,"R","3729414"
"481","Домбай","Dombay","dombay",NULL,"1","27","43.2919","41.616",NULL,"2013-03-15 11:13:21","Asia/Tbilisi",NULL,NULL,NULL
"482","Горноправдинск","Gornopravdinsk","gornopravdinsk",NULL,"1","246","60.0606","69.9225",NULL,"2013-03-15 11:13:21","Asia/Omsk",NULL,NULL,NULL
"483","Николаевск","Nikolaevsk","nikolaevsk",NULL,"1","13","50.01","45.27",NULL,"2013-03-15 11:13:21","Europe/Volgograd",NULL,"W","440034360"
"484","Камень-на-Оби","Kamen'-na-Obi","kamen-na-obi",NULL,"1","3","53.8","81.3333333",NULL,"2013-03-15 11:13:21","Asia/Barnaul",NULL,"W","261510717"
"485","Борисоглебск","Borisoglebsk","borisoglebsk",NULL,"1","15","51.3666667","42.0833333",NULL,"2013-03-15 11:13:21","Europe/Saratov",NULL,"R","5538168"
"486","Павловск","Pavlovsk","pavlovsk",NULL,"1","15","50.4578","40.1081",NULL,"2013-03-15 11:13:21","Europe/Volgograd",NULL,"W","115227684"
"487","Минск","Minsk","minsk","MSQ","9",NULL,"53.900001525879","27.566669464111","1","2013-03-15 11:13:21","Europe/Minsk",NULL,"R","59195"
"488","Буденновск","Budennovsk","budennovsk",NULL,"1","91","44.7838889","44.1658333",NULL,"2013-03-15 11:13:21","Asia/Tbilisi",NULL,NULL,NULL
"491","Ницца","Nice","nice","NCE","11",NULL,"43.703128814697266","7.266079902648926","100","2013-03-15 11:13:21","Europe/Paris",NULL,"R","170100"
"493","Женева","Geneva","geneva","GVA","10",NULL,"46.20400285379985","6.141943507293025","1","2013-03-15 11:13:21","Europe/Zurich",NULL,"R","1685488"
"494","Хельсинки","Helsinki","helsinki","HEL","12",NULL,"60.16952133178711","24.935449600219727","1","2013-03-15 11:13:21","Europe/Helsinki",NULL,"R","34914"
"495","Олонец","Olonets","olonets",NULL,"1","28","60.59","32.58",NULL,"2013-03-15 11:13:21","Europe/Helsinki",NULL,"W","117494450"
"496","Юрга","Yrga","yrga",NULL,"1","29","55.44","84.54",NULL,"2013-03-15 11:13:21","Asia/Novosibirsk",NULL,"R","3396612"
"498","Мюнхен","Munich","munich","MUC","13",NULL,"48.137428283691406","11.57548999786377","1","2013-03-15 11:13:21","Europe/Berlin",NULL,"R","62428"
"499","Бодайбо","Bodaibo","bodaibo","ODO","1","20","57.85","114.2",NULL,"2013-03-15 11:13:21","Asia/Irkutsk",NULL,"R","2664016"
"500","Париж","Paris","paris","PAR","11",NULL,"48.85340881347656","2.34879994392395","1","2013-03-15 11:13:21","Europe/Paris",NULL,"R","7444"
"501","Балабаново","Balabanovo","balabanovo",NULL,"1","25","55.1766","36.6493",NULL,"2013-03-15 11:13:21","Europe/Moscow",NULL,"R","2548302"
"502","Бугуруслан","Buguruslan","buguruslan",NULL,"1","77","53.616667","52.416667",NULL,"2013-03-15 11:13:21","Europe/Samara",NULL,"W","148488824"
"503","Нарьян-Мар","Naryan-Mar","naryan-mar","NNM","1","243","67.3828","53.0241",NULL,"2013-03-15 11:13:21","Europe/Moscow",NULL,"R","1430336"
"504","Кумертау","Kumertau","kumertau",NULL,"1","7","52.7666667","55.7833333",NULL,"2013-03-15 11:13:21","Asia/Aqtobe",NULL,"W","95490756"
"505","Котельниково","Kotelnikovo","kotelnikovo-volgogradskaya-obl",NULL,"1","13","47.6333333","43.1333333",NULL,"2013-03-15 11:13:21","Europe/Volgograd",NULL,"W","150238973"
"506","Белебей","Belebey","belebey",NULL,"1","7","54.1084","54.113818",NULL,"2013-03-15 11:13:21","Europe/Samara",NULL,"R","4791298"
"507","Первоуральск","Pervouralsk","pervouralsk",NULL,"1","88","56.908099","59.942998",NULL,"2013-03-15 11:13:21","Asia/Yekaterinburg",NULL,"W","31001807"
"508","Бикин","Bikin","bikin",NULL,"1","101","46.8166667","134.2666667",NULL,"2013-03-15 11:13:21","Asia/Vladivostok",NULL,"R","9476835"
"509","Учалы","Uchaly","uchaly",NULL,"1","7","54.31819617253432","59.379162360180636",NULL,"2013-03-15 11:13:21","Asia/Yekaterinburg",NULL,"R","7908753"
"510","Гай","Gai","gai","REN","1","77","51.46490728068152","58.443499491873744",NULL,"2013-03-15 11:13:21","Asia/Yekaterinburg",NULL,"W","148471713"
"511","Богородское","Bogorodskoe","bogorodskoe","BQG","1","101","52.371944","140.436944",NULL,"2013-03-15 11:13:21","Asia/Sakhalin",NULL,"R","1838428"
"512","Де-Кастри","De-Kastri","de-kastri",NULL,"1","101","51.4821","140.7688",NULL,"2013-03-15 11:13:21","Asia/Sakhalin",NULL,NULL,NULL
"513","Циммермановка","Tsymmermanovka","tsymmermanovka",NULL,"1","101","51.339933","139.245211",NULL,"2013-03-15 11:13:21","Asia/Sakhalin",NULL,NULL,NULL
"514","Жезказган","Zhezkazgan","zhezkazgan","DZN","3",NULL,"47.47","67.42",NULL,"2013-03-15 11:13:21","Asia/Aqtau",NULL,"R","5513216"
"515","Дальнереченск","Dalnerechensk","dalnerechensk",NULL,"1","81","45.9333333","133.7166667",NULL,"2013-03-15 11:13:21","Asia/Vladivostok",NULL,"R","1651582"
"516","Шанхай","Shanghai","shanghai","SHA","14",NULL,"31.222219467163086","121.45806121826172","1","2013-03-15 11:13:21","Asia/Shanghai",NULL,NULL,NULL
"518","Подольск","Podolsk","podolsk",NULL,"1","70","55.2547","37.324",NULL,"2013-03-15 11:13:21","Europe/Moscow",NULL,"R","1697322"
"519","Душанбе","Dushanbe","dushanbe","DYU","15",NULL,"38.56964280859","68.775873184204",NULL,"2013-03-15 11:13:21","Asia/Dushanbe",NULL,"R","4479735"
"520","Хор","Khor","khor",NULL,"1","101","47.8827778","134.9480556",NULL,"2013-03-15 11:13:21","Asia/Vladivostok",NULL,"R","3357719"
"521","Артыбаш","Artibash","artibash",NULL,"1","2","51.793452914343","87.265026594095",NULL,"2013-03-15 11:13:21","Asia/Novokuznetsk",NULL,NULL,NULL
"522","Берёзовый","Berezoviy","berezoviy",NULL,"1","101","51.6724","135.6649",NULL,"2013-03-15 11:13:21","Asia/Sakhalin",NULL,NULL,NULL
"523","Ахтубинск","Akhtubinsk","akhtubinsk",NULL,"1","6","48.283333","46.166667",NULL,"2013-03-15 11:13:21","Europe/Volgograd",NULL,"W","60009841"
"524","Советская Гавань","Sovetskaya Gavan","sovetskaya-gavan","GVN","1","101","48.9666667","140.2833333",NULL,"2013-03-15 11:13:21","Asia/Vladivostok",NULL,"R","3232600"
"525","Днепр (бывш. Днепропетровск)","Dnipro","dnepropetrovsk","DNK","2",NULL,"48.465597497751","35.010621616614",NULL,"2013-03-15 11:13:21","Europe/Zaporozhye",NULL,"R","1017311"
"526","Поронайск","Poronaisk","poronaisk",NULL,"1","87","49.2119986","143.0860793",NULL,"2013-03-15 11:13:21","Asia/Sakhalin",NULL,"R","3399315"
"527","Вяземский","Vyazemskiy","vyazemskiy",NULL,"1","101","47.5333333","134.75",NULL,"2013-03-15 11:13:21","Asia/Vladivostok",NULL,"R","4839694"
"528","Ефремов","Efremov","efremov",NULL,"1","97","53.15117625585","38.099601672362",NULL,"2013-03-15 11:13:21","Europe/Moscow",NULL,"W","407473291"
"529","Лесозаводск","Lesozavodsk","lesozavodsk",NULL,"1","81","45.4666667","133.4",NULL,"2013-03-15 11:13:21","Asia/Vladivostok",NULL,"W","101116398"
"530","Никольск","Nikolsk","nikolsk",NULL,"1","14","59.32","45.27",NULL,"2013-03-15 11:13:21","Europe/Kirov",NULL,"R","5933925"
"531","Великий Устюг","Velikiy Ustyug","velikiy-ustyug","VUS","1","14","60.7612852","46.3014666",NULL,"2013-03-15 11:13:21","Europe/Moscow",NULL,"R","6944335"
"532","Вельск","Velsk","velsk",NULL,"1","5","61.0666667","42.1",NULL,"2013-03-15 11:13:21","Europe/Kirov",NULL,"R","2201039"
"533","Оха","Okha","okha","OHH","1","87","53.5833333","142.9333333",NULL,"2013-03-15 11:13:21","Asia/Sakhalin",NULL,"W","84723116"
"534","Спасск-Дальний","Spassk-Dalniy","spassk-dalniy",NULL,"1","81","44.6","132.8166667",NULL,"2013-03-15 11:13:21","Asia/Vladivostok",NULL,"R","1723641"
"536","Николаевка","Nikplaevka","nikplaevka",NULL,"1","100","53.1255556","47.2058333",NULL,"2013-03-15 11:13:21","Europe/Ulyanovsk",NULL,NULL,NULL
"537","Троицкое","Troitskoe","troitskoe",NULL,"1","101","49.440756356572","136.5474996132",NULL,"2013-03-15 11:13:21","Asia/Sakhalin",NULL,NULL,NULL
"538","Тараз","Taraz","taraz","DMB","3",NULL,"42.900001525879","71.366668701172","2","2013-03-15 11:13:21","Asia/Aqtau",NULL,"R","3388835"
"539","Абаза","Abaza","abaza",NULL,"1","102","52.6439448","90.1039492",NULL,"2013-03-15 11:13:21","Asia/Novokuznetsk",NULL,"R","3507715"
"540","Бишкек","Bishkek","bishkek","FRU","16",NULL,"42.861984870333","74.568856349144","1","2013-03-15 11:13:21","Asia/Bishkek",NULL,"R","8493930"
"541","Шарья","Sharya","sharya",NULL,"1","33","58.3666667","45.5",NULL,"2013-03-15 11:13:21","Europe/Kirov",NULL,"R","5588953"
"542","Жемчужный","Zhemchuzhnyi","zhemchuzhnyi",NULL,"1","102","54","90",NULL,"2013-03-15 11:13:21","Asia/Novokuznetsk",NULL,NULL,NULL
"543","пос. Жемчужный, Ширинский р-он, Респ. Хакасия","Zhemchuzhnyi village","zhemchuzhnyi-village",NULL,"1",NULL,"0","0",NULL,"2013-03-15 11:13:21","UTC","2021-03-15 08:18:13",NULL,NULL
"544","Закаменск","Zakamensk","zakamensk",NULL,"1","10","50.3833333","103.2833333",NULL,"2013-03-15 11:13:21","Asia/Irkutsk",NULL,"W","326526660"
"545","Чернушка","Chernushka","chernushka",NULL,"1","80","56.5","56.0833333",NULL,"2013-03-15 11:13:21","Asia/Yekaterinburg",NULL,"R","1440528"
"546","Аша","Asha","asha",NULL,"1","103","55","57.15",NULL,"2013-03-15 11:13:21","Asia/Yekaterinburg",NULL,"W","31001823"
"547","Майма","Maima","maima",NULL,"1","2","52.003718","85.89618",NULL,"2013-03-15 11:13:21","Asia/Barnaul",NULL,"W","123837564"
"548","Аршан","Arshan","arshan",NULL,"1","10","51.9086111","102.4288889",NULL,"2013-03-15 11:13:21","Asia/Irkutsk",NULL,NULL,NULL
"549","Байкальск","Baikalsk","baikalsk",NULL,"1","20","51.5091","104.1188","2","2013-03-15 11:13:21","Asia/Irkutsk",NULL,"W","141709788"
"550","Красный Чикой","Krasnyi Chikoi","krasnyi-chikoi","КСЧ","1","200","50.3636111","108.7566667",NULL,"2013-03-15 11:13:21","Asia/Yakutsk",NULL,"W","158475692"
"551","Салават","Salavat","salavat",NULL,"1","7","53.361694","55.924627",NULL,"2013-03-15 11:13:21","Asia/Aqtobe",NULL,"W","31001743"
"552","Кокшетау","Kokshetau","kokshetau","KOV","3",NULL,"53.282440185547","69.396919250488","2","2013-03-15 11:13:21","Asia/Aqtau",NULL,"R","3388744"
"553","Мотыгино","Motigino","motigino","МТГ","1","35","58.1807263","94.6750218",NULL,"2013-03-15 11:13:21","Asia/Krasnoyarsk",NULL,"R","4548487"
"554","Задонск","Zadonsk","zadonsk",NULL,"1","39","52.23","38.55",NULL,"2013-03-15 11:13:21","Europe/Moscow",NULL,"R","4856057"
"555","Ашхабад","Ashkhabad","ashkhabad","ASB","17",NULL,"37.57","58.23",NULL,"2013-03-15 11:13:21","Asia/Ashgabat",NULL,"R","7328329"
"556","Петропавловск","Petropavlovsk","petropavlovsk","PPK","3",NULL,"54.860129","69.167564",NULL,"2013-03-15 11:13:21","Asia/Aqtau",NULL,"R","10062257"
"557","Ужур","Uzhur","uzhur",NULL,"1","35","55.3166667","89.8166667",NULL,"2013-03-15 11:13:21","Asia/Krasnoyarsk",NULL,"R","3634767"
"558","Кожаны","Kozhani","kozhani",NULL,"1","35","55.365556","91.091667",NULL,"2013-03-15 11:13:21","Asia/Krasnoyarsk",NULL,NULL,NULL
"559","Миллерово","Millerovo","millerovo",NULL,"1","83","48.9166667","40.4",NULL,"2013-03-15 11:13:21","Europe/Volgograd",NULL,"R","5926355"
"561","Усть-Катав","Ust-Katav","ust-katav",NULL,"1","103","54.930289","58.1747",NULL,"2013-03-15 11:13:21","Asia/Yekaterinburg",NULL,"W","31001716"
"562","Тбилиси","Tbilisi","tbilisi","TBS","18",NULL,"41.694110870361","44.833679199219","1","2013-03-15 11:13:21","Asia/Tbilisi",NULL,"R","1996871"
"563","Нью-Йорк","New York","new-york","NYC","19","142","40.714271545410156","-74.00596618652344","1","2013-03-15 11:13:21","America/New_York",NULL,"R","175905"
"564","Белореченск","Belorechensk","belorechensk",NULL,"1","34","44.46","39.52",NULL,"2013-03-15 11:13:21","Europe/Simferopol",NULL,"W","32885222"
"565","Тотьма","Tot'ma","tot-ma",NULL,"1","14","59.9747222","42.7641667",NULL,"2013-03-15 11:13:21","Europe/Kirov",NULL,"R","9642963"
"566","Артын","Artyn","artyn",NULL,"1","76","56.156822636387","74.757906391105",NULL,"2013-03-15 11:13:21","Asia/Omsk",NULL,NULL,NULL
"567","Краснокаменск","Krasnokamensk","krasnokamensk",NULL,"1","200","50.092951","118.032439",NULL,"2013-03-15 11:13:21","Asia/Choibalsan",NULL,"R","6029365"
"568","Акша","Aksha","aksha",NULL,"1","200","50.2816667","113.2869444",NULL,"2013-03-15 11:13:21","Asia/Chita",NULL,NULL,NULL
"570","Чунский","Chunskiy","chunskiy",NULL,"1","20","56.0778384","99.6533748",NULL,"2013-03-15 11:13:21","Asia/Krasnoyarsk",NULL,"W","37629480"
"571","Черемхово","Cheremhovo","cheremhovo",NULL,"1","20","53.15","103.0666667",NULL,"2013-03-15 11:13:21","Asia/Irkutsk",NULL,"R","2051456"
"572","Гомель","Gomel","gomel","GME","9",NULL,"52.424961115978","31.000515162951",NULL,"2013-03-15 11:13:21","Europe/Minsk",NULL,"R","163244"
"573","Калтан","Kaltan","kaltan",NULL,"1","29","53.5484776","87.2598304",NULL,"2013-03-15 11:13:21","Asia/Novokuznetsk",NULL,"R","7690276"
"574","Баку","Baku","baku","BAK","20",NULL,"40.377670288086","49.892009735107","1","2013-03-15 11:13:21","Asia/Baku",NULL,"R","2415335"
"575","Ереван","Yerevan","Yerevan","EVN","21",NULL,"40.18111038208","44.513610839844","1","2013-03-15 11:13:21","Asia/Yerevan",NULL,"R","364087"
"576","Тында","Tinda","tinda","TYD","1","4","55.15","124.7166667",NULL,"2013-03-15 11:13:21","Asia/Yakutsk",NULL,"W","159194901"
"577","Солонешное","Soloneshnoe","soloneshnoe",NULL,"1","3","51.6633333","84.3194444",NULL,"2013-03-15 11:13:21","Asia/Barnaul",NULL,"W","631623795"
"578","Зорино","Zorino","zorino",NULL,"1","10","53.5098","109.3655",NULL,"2013-03-15 11:13:21","Asia/Chita",NULL,NULL,NULL
"579","Кяхта","Kyahta","kyahta",NULL,"1","10","50.35","106.45",NULL,"2013-03-15 11:13:21","Asia/Irkutsk",NULL,"R","3907772"
"580","Селенгинск пгт","Selenginsk","selenginsk",NULL,"1","10","52.0157381","106.8705723",NULL,"2013-03-15 11:13:21","Asia/Irkutsk",NULL,"W","41551971"
"581","Култушная станция","Kultushnaya station","kultushnaya-station",NULL,"1","10","0","0",NULL,"2013-03-15 11:13:21","UTC",NULL,NULL,NULL
"582","Гусиноозерск","Gusinoozersk","gusinoozersk",NULL,"1","10","51.2833333","106.5166667",NULL,"2013-03-15 11:13:21","Asia/Irkutsk",NULL,"R","2310252"
"583","Усолье-Сибирское","Usolye-Sibirskoye","usolye-sibirskoye",NULL,"1","20","52.75","103.6333333",NULL,"2013-03-15 11:13:21","Asia/Irkutsk",NULL,"R","1465804"
"584","Качуг","Kachug","kachug",NULL,"1","20","53.960364","105.89257",NULL,"2013-03-15 11:13:21","Asia/Irkutsk",NULL,"R","2664025"
"585","Кировск","Kirovsk","kirovsk",NULL,"1","71","67.632682","33.723897",NULL,"2013-03-15 11:13:21","Europe/Helsinki",NULL,"R","1430461"
"586","Первомайск пгт","Pervomaysk","pervomaysk",NULL,"1","73","54.867632","43.801377",NULL,"2013-03-15 11:13:21","Europe/Ulyanovsk",NULL,"R","6286192"
"587","Сретенск","Sretensk","sretensk",NULL,"1","200","52.25","117.7166667",NULL,"2013-03-15 11:13:21","Asia/Chita",NULL,"W","202410242"
"588","Алдан","Aldan","aldan","ADH","1","108","58.6","125.3833333",NULL,"2013-03-15 11:13:21","Asia/Yakutsk",NULL,"W","197303735"
"589","Балей","Baley","baley",NULL,"1","200","51.5833333","116.6333333",NULL,"2013-03-15 11:13:21","Asia/Chita",NULL,"W","258500326"
"590","Чернышевск","Cherniyshevsk","cherniyshevsk",NULL,"1","200","52.5324758","117.0140936",NULL,"2013-03-15 11:13:21","Asia/Chita",NULL,"R","10212394"
"591","Жирекен","Zhireken","zhireken",NULL,"1","200","52.8340508","117.3005732",NULL,"2013-03-15 11:13:21","Asia/Chita",NULL,NULL,NULL
"592","Асбест","Asbest","asbest",NULL,"1","88","57","61.28",NULL,"2013-03-15 11:13:21","Asia/Yekaterinburg",NULL,"W","38709906"
"593","Кулебаки","Kulebaki","kulebaki",NULL,"1","73","55.416387","42.530405",NULL,"2013-03-15 11:13:21","Europe/Moscow",NULL,"R","3166332"
"594","Костанай","Kostanay","kostanay","KSN","3",NULL,"53.214351654053","63.624629974365","1","2013-03-15 11:13:21","Asia/Aqtau",NULL,"R","3540206"
"595","Судак","Sudak","sudak","СУТ","1","240","44.849020459835","34.978294458008",NULL,"2013-03-15 11:13:21","Europe/Simferopol",NULL,"R","2248683"
"596","Шимановск","Shimanovsk","shimanovsk",NULL,"1","4","52","127.7",NULL,"2013-03-15 11:13:21","Asia/Chita",NULL,"R","1748669"
"597","Нижнеудинск","Nizhneudinsk","nizhneudinsk","НЖД","1","20","54.9","99.0166667",NULL,"2013-03-15 11:13:21","Asia/Krasnoyarsk",NULL,"R","9501832"
"598","Морозовск","Morozovsk","morozovsk",NULL,"1","83","48.3539","41.8261",NULL,"2013-03-15 11:13:21","Europe/Volgograd",NULL,"R","3539696"
"599","Могоча","Mogocha","mogocha",NULL,"1","200","53.7333333","119.7666667",NULL,"2013-03-15 11:13:21","Asia/Chita",NULL,NULL,NULL
"600","Актау","Aktay","aktay","SCO","3",NULL,"43.652167121769","51.167541503905","1","2013-03-15 11:13:21","Asia/Aqtau",NULL,NULL,NULL
"601","Ясногорск","Yasnogorsk","yasnogorsk",NULL,"1","200","50.875","115.695833",NULL,"2013-03-15 11:13:21","Asia/Chita",NULL,"R","2545078"
"602","Тулун","Tulun","tulun",NULL,"1","20","54.5666667","100.5666667",NULL,"2013-03-15 11:13:21","Asia/Irkutsk",NULL,"R","12223522"
"603","Борзя","Borzya","borzya",NULL,"1","200","50.3833333","116.5333333",NULL,"2013-03-15 11:13:21","Asia/Chita",NULL,"W","202410236"
"604","Минеральные Воды","Mineralnye Vodi","mineralnye-vodi","MRV","1","91","44.2166667","43.1333333","1","2013-03-15 11:13:21","Europe/Moscow",NULL,"R","2416868"
"605","Николаев","Mykolayiv","nikolaev","NLV","2",NULL,"46.967","32",NULL,"2013-03-15 11:13:21","Europe/Kiev",NULL,"N","60410873"
"606","Северо-Енисейск","Severo-Eniseisk","severo-eniseisk","VEO","1","35","60.374702","93.032997",NULL,"2013-03-15 11:13:21","Asia/Krasnoyarsk",NULL,"W","140870691"
"607","Агинское","Aginskoe","aginskoe-zabaikalskiy-krai",NULL,"1","200","51.1043004","114.5321529",NULL,"2013-03-15 11:13:21","Asia/Chita",NULL,"R","2555210"
"608","Богучаны","Boguchany","boguchany-krasnoyarskiy-krai","БОЧ","1","35","58.3798","97.4598",NULL,"2013-03-15 11:13:21","Asia/Krasnoyarsk",NULL,"W","137200109"
"609","Тимашевск","Timashevsk","timashevsk",NULL,"1","34","45.6169444","38.9452778",NULL,"2013-03-15 11:13:21","Europe/Zaporozhye",NULL,"R","5290579"
"610","Железногорск-Илимский","Zheleznogorsk-Ilimskiy","zheleznogorsk-ilimskiy-irkutskaya-area",NULL,"1","20","56.5833333","104.1166667",NULL,"2013-03-15 11:13:21","Asia/Irkutsk",NULL,"R","3580013"
"611","Краснотуранск","Krasnotyransk","krasnotyransk",NULL,"1","35","54","91",NULL,"2013-03-15 11:13:21","Asia/Krasnoyarsk",NULL,"W","177212847"
"613","Забайкальск пгт","Zabaikalsk","zabaikalsk",NULL,"1","200","49.650584","117.32904",NULL,"2013-03-15 11:13:21","Asia/Choibalsan",NULL,"W","111616282"
"614","Бремерхавен","Bremerhaven","bremerhaven","BRV","13",NULL,"53.550209045410156","8.576740264892578",NULL,"2013-03-15 11:13:21","Europe/Berlin",NULL,"R","62658"
"615","Гамбург","Hamburg","hamburg","HAM","13",NULL,"53.575321197509766","10.015339851379395",NULL,"2013-03-15 11:13:21","Europe/Berlin",NULL,NULL,NULL
"616","Уржум","Urzhum","urzhum",NULL,"1","31","57.109964537047794","49.99962917427916",NULL,"2013-03-15 11:13:21","Europe/Kirov",NULL,"R","5298824"
"617","Тайшет","Taishet","taishet",NULL,"1","20","55.9333333","98.0166667",NULL,"2013-03-15 11:13:21","Asia/Krasnoyarsk",NULL,"W","48180461"
"618","Магистральный","Magistralniy","magistralniy",NULL,"1","20","56.168067","107.4383392",NULL,"2013-03-15 11:13:21","Asia/Irkutsk",NULL,"R","9440760"
"619","Газимурский Завод","Gazimurskiy Zavod","gazimurskiy-zavod",NULL,"1","200","51.5447222","118.3422222",NULL,"2013-03-15 11:13:21","Asia/Chita",NULL,NULL,NULL
"620","Первомайский","Pervomayskiy","pervomayskiy-zabaikalskiy-area",NULL,"1","200","51.666384779458","115.62452882982",NULL,"2013-03-15 11:13:21","Asia/Chita",NULL,"W","56195927"
"621","Железногорск","Zheleznogorsk","zheleznogorsk-krasnoyarskiy-krai",NULL,"1","35","56.254358475482","93.535947953124","2","2013-03-15 11:13:21","Asia/Krasnoyarsk",NULL,"R","1430615"
"622","Дульдурга","Duldurga","duldurga",NULL,"1","200","50.67494","113.590108",NULL,"2013-03-15 11:13:21","Asia/Chita",NULL,NULL,NULL
"623","Батайск","Bataysk","bataysk",NULL,"1","83","47.08","39.45",NULL,"2013-03-15 11:13:21","Europe/Zaporozhye",NULL,"R","1609550"
"624","Лысьва","Lysva","lysva",NULL,"1","80","58.10017","57.809266",NULL,"2013-03-15 11:13:21","Asia/Yekaterinburg",NULL,"N","308220097"
"625","Жигалово","Zhigalovo","zhigalovo",NULL,"1","20","54.8166667","105.15",NULL,"2013-03-15 11:13:21","Asia/Irkutsk",NULL,"R","2658420"
"626","Тихвин","Tikhvin","tikhvin",NULL,"1","38","59.38","33.3",NULL,"2013-03-15 11:13:21","Europe/Helsinki",NULL,"R","1116705"
"627","Линц","Linz","linz","LNZ","22",NULL,"48.30638885498047","14.286109924316406","2","2013-03-15 11:13:21","Europe/Vienna",NULL,NULL,NULL
"628","Парабель","Parabel","parabel",NULL,"1","95","58.7","81",NULL,"2013-03-15 11:13:21","Asia/Tomsk",NULL,NULL,NULL
"629","Каргасок","Kargasok","kargasok","КАС","1","95","59","80",NULL,"2013-03-15 11:13:21","Asia/Tomsk",NULL,"W","112014785"
"630","Кандалакша","Kandalaksha","kandalaksha",NULL,"1","71","64.096","32.41",NULL,"2013-03-15 11:13:21","Europe/Helsinki",NULL,"R","6332097"
"631","Сковородино","Skovorodino","skovorodino","ZZZ","1","4","53.9833333","123.9333333",NULL,"2013-03-15 11:13:21","Asia/Chita",NULL,"W","38310316"
"632","Милан","Milan","milan","MIL","23",NULL,"45.46561531169676","9.185729026794439","1","2013-03-15 11:13:21","Europe/Rome",NULL,"R","44915"
"633","Каменоломни пгт","Kamenolomni","kamenolomni",NULL,"1","83","47.6684","40.2145",NULL,"2013-03-15 11:13:21","Europe/Volgograd",NULL,"R","4433203"
"634","Коряжма","Koryazhma","koryazhma",NULL,"1","5","61.30867626552139","47.12486664919917",NULL,"2013-03-15 11:13:21","Europe/Kirov",NULL,"R","3346450"
"635","Амурзет","Amurzet","amurzet",NULL,"1","17","47.7","131.1",NULL,"2013-03-15 11:13:21","Asia/Vladivostok",NULL,"W","181034624"
"636","Кодинск","Kodinsk","kodinsk","КЗИ","1","35","58","99",NULL,"2013-03-15 11:13:21","Asia/Krasnoyarsk",NULL,"R","3525396"
"637","Киренск","Kirensk","kirensk","KCK","1","20","57","108",NULL,"2013-03-15 11:13:21","Asia/Irkutsk",NULL,"W","104642513"
"638","Кыштым","Kishtim","kishtim",NULL,"1","103","55","60",NULL,"2013-03-15 11:13:21","Asia/Yekaterinburg",NULL,"W","31001721"
"639","Чегдомын","Chegdomin","chegdomin",NULL,"1","101","51.1226055","132.9736619",NULL,"2013-03-15 11:13:21","Asia/Sakhalin",NULL,"W","180953649"
"640","Сахюрта","Sahuta","sahuta",NULL,"1","20","53.0146","106.884",NULL,"2013-03-15 11:13:21","Asia/Irkutsk",NULL,NULL,NULL
"641","Лондон","London","london","LON","24",NULL,"51.511687174753014","-0.12595653533935547","1","2013-03-15 11:13:21","Europe/London",NULL,"R","65606"
"642","Давлеканово","Davlekanovo","davlekanovo",NULL,"1","7","54.13","55.02",NULL,"2013-03-15 11:13:21","Europe/Samara",NULL,"R","8407890"
"643","Бабаево","Babaevo","babaevo",NULL,"1","14","59.23","35.57",NULL,"2013-03-15 11:13:21","Europe/Moscow",NULL,"W","30013604"
"644","Шилка","Shilka","shilka",NULL,"1","200","51.85","116.0333333",NULL,"2013-03-15 11:13:21","Asia/Chita",NULL,"W","130727917"
"645","Молчаново","Molchanovo","molchanovo",NULL,"1","95","57","83",NULL,"2013-03-15 11:13:21","Asia/Tomsk",NULL,NULL,NULL
"646","Колпашево","Kolpashevo","kolpashevo",NULL,"1","95","58","82",NULL,"2013-03-15 11:13:21","Asia/Tomsk",NULL,"W","174730062"
"647","Туруханск","Tyrykhansk","tyrykhansk","THX","1","35","65","87",NULL,"2013-03-15 11:13:21","Asia/Krasnoyarsk",NULL,"W","256154459"
"648","Узнезя","Uznezia","uznezia",,"1","2","51","85",NULL,"2013-03-15 11:13:21","Asia/Omsk",NULL,NULL,NULL
"649","Излучинск","Izluchinsk","izluchinsk",NULL,"1","246","60.950618","76.877112",NULL,"2013-03-15 11:13:21","Asia/Tomsk",NULL,"R","6822930"
"650","Петропавловка","Petropavlovka","petropavlovka",NULL,"1","76","50.8638","39.8449",NULL,"2013-03-15 11:13:21","Europe/Volgograd",NULL,"W","153341409"
"651","Краснозёрское","Krasnozerskoe","krasnozerskoe",NULL,"1","75","53","79",NULL,"2013-03-15 11:13:21","Asia/Barnaul",NULL,"R","5598178"
"652","Алтайское с.","Altayskoe","altayskoe-selo",NULL,"1",NULL,"51","85",NULL,"2013-03-15 11:13:21","Asia/Barnaul","2021-03-15 08:18:13","W","48117938"
"653","Таштагол","Tashtagol","tashtagol",NULL,"1","29","52","87",NULL,"2013-03-15 11:13:21","Asia/Novokuznetsk",NULL,"R","3673978"
"654","Архыз","Arkhyz","arkhyz",NULL,"1","27","43.5611","41.2721",NULL,"2013-03-15 11:13:21","Asia/Tbilisi",NULL,NULL,NULL
"655","Хужир","Khuzhir","khuzhir",NULL,"1","20","53.11","107.2",NULL,"2013-03-15 11:13:21","Asia/Irkutsk",NULL,NULL,NULL
"656","Питтсбург","Pittsburg","pittsburg","PIT","19",NULL,"37.41088104248047","-94.70496368408203",NULL,"2013-03-15 11:13:21","America/New_York",NULL,NULL,NULL
"657","Лебедянь","Lebedyan","lebedyan",NULL,"1","39","53.013804","39.144965",NULL,"2013-03-15 11:13:21","Europe/Moscow",NULL,"R","1709594"
"660","Варшава","Warsaw","warsaw","WAW","25",NULL,"52.22977066040039","21.01177978515625","1","2013-03-15 11:13:21","Europe/Warsaw",NULL,"R","336075"
"662","Соузга","Souzga","souzga",NULL,"1","2","51.8844","85.86",NULL,"2013-03-15 11:13:21","Asia/Barnaul",NULL,NULL,NULL
"663","Тевриз пгт","Tevriz","tevriz",NULL,"1","76","57.5166667","72.4",NULL,"2013-03-15 11:13:21","Asia/Omsk",NULL,"W","116801681"
"664","Выкса","Viksa","viksa",NULL,"1","73","55.31964","42.17332",NULL,"2013-03-15 11:13:21","Europe/Moscow",NULL,"R","1582270"
"665","Чердынь","Cherdin","cherdin",NULL,"1","80","60.4016667","56.4794444",NULL,"2013-03-15 11:13:21","Europe/Kirov",NULL,"W","108943628"
"666","Урюпинск","Uryupinsk","uryupinsk",NULL,"1","13","50.8","42.0166667",NULL,"2013-03-15 11:13:21","Europe/Volgograd",NULL,"R","3374770"
"667","Лучегорск","Luchegorsk","luchegorsk",NULL,"1","81","46.27","134.17",NULL,"2013-03-15 11:13:21","Asia/Vladivostok",NULL,"W","126462619"
"668","Камень-Рыболов","Kamen-Rybolov","kamen-rybolov",NULL,"1","81","44.46","132.01",NULL,"2013-03-15 11:13:21","Asia/Vladivostok",NULL,"R","6790244"
"669","Усть-Кокса","Ust-Koksa","ust-koksa",NULL,"1","2","50","85",NULL,"2013-03-15 11:13:21","Asia/Barnaul",NULL,"W","61656668"
"670","Красновишерск","Krasnovishersk","krasnovishersk",NULL,"1","80","60.4","57.0666667",NULL,"2013-03-15 11:13:21","Asia/Yekaterinburg",NULL,"N","285734826"
"671","Можга","Mozhga","mozhga",NULL,"1","99","56.45","52.2166667",NULL,"2013-03-15 11:13:21","Europe/Kirov",NULL,"R","6821105"
"672","Игра","Igra","igra",NULL,"1","99","57.540193","53.086211",NULL,"2013-03-15 11:13:21","Europe/Kirov",NULL,"R","3365627"
"673","Ува","Uva","uva",NULL,"1","99","56.984064","52.186234",NULL,"2013-03-15 11:13:21","Europe/Kirov",NULL,"R","3477441"
"674","Клин","Klin","klin",NULL,"1","70","56.326155150349734","36.71560082584621",NULL,"2013-03-15 11:13:21","Europe/Moscow",NULL,"R","5886982"
"675","Вятские Поляны","Vyatskie Polyany","vyatskie-polyany",NULL,"1","31","56.219046556193284","51.06682676755471",NULL,"2013-03-15 11:13:21","Europe/Ulyanovsk",NULL,"R","3237869"
"676","Кирс","Kirs","kirs",NULL,"1","31","59.339987","52.241516",NULL,"2013-03-15 11:13:21","Europe/Kirov",NULL,"R","3132811"
"677","Небуг","Nebug","nebug",NULL,"1","34","44.165821935439","38.996805329741",NULL,"2013-03-15 11:13:21","Europe/Simferopol",NULL,NULL,NULL
"679","Манила","Manila","manila","MNL","26",NULL,"14","121",NULL,"2013-03-15 11:13:21","Asia/Manila",NULL,"R","103703"
"680","Нерчинск","Nerchinsk","nerchinsk",NULL,"1","200","51.98","116.58",NULL,"2013-03-15 11:13:21","Asia/Chita",NULL,"W","165062418"
"681","Уни","Uni","uni",NULL,"1","31","57.75","51.4833333",NULL,"2013-03-15 11:13:21","Europe/Kirov",NULL,"R","6996811"
"683","Лабытнанги","Labytnangy","labytnangy",NULL,"1","109","66.39","66.24",NULL,"2013-03-15 11:13:21","Asia/Yekaterinburg",NULL,"W","53835041"
"684","Чугуевка село","Chuguevka village","chuguevka-village",NULL,"1","81","44.1647716","133.868617",NULL,"2013-03-15 11:13:21","Asia/Vladivostok",NULL,"W","92831914"
"685","Котельнич","Kotelnich","kotelnich",NULL,"1","31","58.30202378924222","48.34320850372313",NULL,"2013-03-15 11:13:21","Europe/Kirov",NULL,"R","2626486"
"686","Советск","Sovetsk","sovetsk",NULL,"1","23","55.08158664631299","21.893319374713087",NULL,"2013-03-15 11:13:21","Europe/Kaliningrad",NULL,"R","3616563"
"687","Кривошеино село","Krivosheino village","krivosheino-village",NULL,"1","95","57.343852","83.930145",NULL,"2013-03-15 11:13:21","Asia/Tomsk",NULL,"W","41846306"
"688","Севастополь","Sevastopol","sevastopol","UKS","1","240","44.584569008214","33.519315198907","1","2013-03-15 11:13:21","Europe/Simferopol",NULL,"R","3030976"
"689","Зея","Zeya","zeya","ЗЕЯ","1","4","53.7333333","127.25",NULL,"2013-03-15 11:13:21","Asia/Yakutsk",NULL,"W","69758170"
"690","Вербилки","Verbilki","verbilki",NULL,"1","70","56.5425","37.5611111",NULL,"2013-03-15 11:13:21","Europe/Moscow",NULL,"R","3600876"
"691","Видное","Vidnoe","vidnoe",NULL,"1","70","55.33","37.42",NULL,"2013-03-15 11:13:21","Europe/Moscow",NULL,"R","1361875"
"692","Грозный","Grozny","grozny","GRV","1","104","43.3291","45.6909","1","2013-03-15 11:13:21","Europe/Moscow",NULL,"R","2131460"
"693","Белогoрск","Belogorsk","belogorsk",NULL,"1","4","50","128",NULL,"2013-03-15 11:13:21","Asia/Vladivostok","2021-03-15 08:18:13","W","159194395"
"694","Солнечный","Solnechnyi","solnechnyi",NULL,"1","86","51.1716","47.9401",NULL,"2013-03-15 11:13:21","Europe/Saratov",NULL,"R","3511824"
"695","Нижняя Тура","Nizhnyaya Tura","nizhnyaya-tura",NULL,"1","88","58.6208333","59.8477778",NULL,"2013-03-15 11:13:21","Asia/Yekaterinburg",NULL,"R","1374173"
"696","Рыбинск","Rybinsk","rybinsk","RYB","1","110","58.050008","38.833318",NULL,"2013-03-15 11:13:21","Europe/Moscow",NULL,"R","1432255"
"697","Кильмезь","Kilmez","kilmez",NULL,"1","31","56.943614","51.066601",NULL,"2013-03-15 11:13:21","Europe/Kirov",NULL,"R","3198911"
"698","Барселона","Barcelona","barcelona","BCN","27",NULL,"41.390154669403714","2.1650094985961967","1","2013-03-15 11:13:21","Europe/Madrid",NULL,"R","347950"
"699","Саров","Sarov","sarov",NULL,"1","73","54.9333333","43.3166667",NULL,"2013-03-15 11:13:21","Europe/Ulyanovsk",NULL,"R","1428992"
"700","Нефтекумск","Neftekumsk","neftekumsk",NULL,"1","91","44.75","44.9833333",NULL,"2013-03-15 11:13:21","Europe/Astrakhan",NULL,"W","178673471"
"701","Кирово-Чепецк","Kirovo-Chepetsk","kirovo-chepetsk",NULL,"1","31","58.55","50.016667",NULL,"2013-03-15 11:13:21","Europe/Kirov",NULL,"R","3440980"
"702","Турочак","Turochak","turochak",NULL,"1","2","52","87",NULL,"2013-03-15 11:13:21","Asia/Novokuznetsk",NULL,"W","189790692"
"703","Артёмовский","Artemovskiy","artemovskiy",NULL,"1","88","57.3564","61.8711",NULL,"2013-03-15 11:13:21","Asia/Yekaterinburg",NULL,"W","39338804"
"704","Франкфурт-на-Майне","Frankfurt am Main","frankfurt-am-main","FRA","13",NULL,"50.11767785833853","8.67832701266018","1","2013-03-15 11:13:21","Europe/Berlin",NULL,"R","62400"
"705","Ленск","Lensk","lensk","ULK","1","108","60.728085","114.9156833",NULL,"2013-03-15 11:13:21","Asia/Yakutsk",NULL,"W","216581800"
"706","Прохоровка","Prokhorovka","prokhorovka",NULL,"1","8","51.0363889","36.7363889",NULL,"2013-03-15 11:13:21","Europe/Zaporozhye",NULL,"R","7790821"
"707","Лиски","Liski","liski",NULL,"1","15","50.9791667","39.4941667",NULL,"2013-03-15 11:13:21","Europe/Volgograd",NULL,"W","96456623"
"708","Николаевск-на-Амуре","Nikolayavsk-na-Amure","nikolayavsk-na-amure","NLI","1","101","53.15","140.7333333",NULL,"2013-03-15 11:13:21","Asia/Vladivostok",NULL,"R","3515419"
"709","Амстердам","Amsterdam","amsterdam","AMS","28",NULL,"52.37403106689453","4.889689922332764","1","2013-03-15 11:13:21","Europe/Amsterdam",NULL,"R","271110"
"710","Белая Калитва","Belaya Kalitva","belaya-kalitva",NULL,"1","83","48.175","40.7894444",NULL,"2013-03-15 11:13:21","Europe/Volgograd",NULL,"R","5887746"
"711","Знаменское 2","Znamenskoe","znamenskoe",NULL,"1","76","57","73",NULL,"2013-03-15 11:13:21","Asia/Omsk",NULL,NULL,NULL
"712","Каменск-Шахтинский","Kamensk-Shakhtinskiy","kamensk-shakhtinskiy",NULL,"1","83","48.3205556","40.2611111",NULL,"2013-03-15 11:13:21","Europe/Volgograd",NULL,"R","1517394"
"713","Сосновый Бор","Sosnovyi Bor","sosnovyi-bor",NULL,"1","38","59.8984841","29.0975853",NULL,"2013-03-15 11:13:21","Europe/Helsinki",NULL,"R","1954056"
"714","Кувандык","Kuvandik","kuvandik",NULL,"1","77","51.4761","57.3519",NULL,"2013-03-15 11:13:21","Asia/Aqtobe",NULL,"W","138707119"
"715","Цюрих","Zurich","zurich","ZRH","10",NULL,"47.366668701171875","8.550000190734863","1","2013-03-15 11:13:21","Europe/Zurich",NULL,NULL,NULL
"717","Ванино пгт.","Vanino","vanino",NULL,"1","101","49.096709","140.2613789",NULL,"2013-03-15 11:13:21","Asia/Sakhalin",NULL,"W","330700745"
"718","Балтийск","Baltijsk","baltijsk",NULL,"1","23","54.652023","19.919371",NULL,"2013-03-15 11:13:21","Europe/Kaliningrad",NULL,"R","11546739"
"719","Свободный","Svobodnyi","svobodnyi",NULL,"1","4","51.4","128.1333333",NULL,"2013-03-15 11:13:21","Asia/Vladivostok",NULL,"W","159194846"
"720","Южноуральск","Yuzhnouralsk","yuzhnouralsk",NULL,"1","103","54.45","61.25",NULL,"2013-03-15 11:13:21","Asia/Qostanay",NULL,"W","30336429"
"721","Талинка","Talinka","talinka",NULL,"1","246","61.549762","66.452505",NULL,"2013-03-15 11:13:21","Asia/Yekaterinburg",NULL,"W","52877985"
"722","Балашиха","Balashikha","balashikha",NULL,"1","70","55.796924","37.950109",NULL,"2013-03-15 11:13:21","Europe/Moscow",NULL,"R","3171497"
"723","Кировград","Kirovgrad","kirovgrad",NULL,"1","88","57.4265377","60.0749398",NULL,"2013-03-15 11:13:21","Asia/Yekaterinburg",NULL,"W","31001735"
"724","Токсово","Toksovo","toksovo",NULL,"1","38","60.1602488","30.5114844",NULL,"2013-03-15 11:13:21","Europe/Helsinki",NULL,"R","2155572"
"725","Зубанья","Zubaniya","zubaniya",NULL,"1","73","57.64665781981499","46.485671218977366",NULL,"2013-03-15 11:13:21","Europe/Kirov",NULL,NULL,NULL
"726","Верхняя Пышма","Verkhnyaya Pyshma","verkhnyaya-pyshma",NULL,"1","88","56.9761111","60.5944444",NULL,"2013-03-15 11:13:21","Asia/Yekaterinburg",NULL,"W","31001701"
"727","Димитровград","Dimitrovgrad","dimitrovgrad",NULL,"1","100","54.2333333","49.5833333",NULL,"2013-03-15 11:13:21","Europe/Ulyanovsk",NULL,"R","3311487"
"728","Родино","Rodino","rodino",NULL,"1","3","52.494952942455","80.205529630184",NULL,"2013-03-15 11:13:21","Asia/Barnaul",NULL,"W","123837674"
"729","Усинск","Usinsk","usinsk","USK","1","32","66","57.5333333",NULL,"2013-03-15 11:13:21","Europe/Moscow",NULL,"W","38593203"
"730","Волжск","Volzhsk","volzhsk",NULL,"1","41","55.8702778","48.3561111",NULL,"2013-03-15 11:13:21","Europe/Ulyanovsk",NULL,"R","1661840"
"731","Вязьма","Vyazma","vyazma",NULL,"1","90","55.2166667","34.3",NULL,"2013-03-15 11:13:21","Europe/Moscow",NULL,"R","4308268"
"732","Кириши","Kirishi","kirishi",NULL,"1","38","59","32",NULL,"2013-03-15 11:13:21","Europe/Tallinn",NULL,"R","2768205"
"733","Улан-Батор","Ulan-Bator","ulan-bator","ULN","29",NULL,"47.55","106.55","1","2013-03-15 11:13:21","Asia/Ulaanbaatar",NULL,"R","4479697"
"734","Облучье","Obluchie","obluchie",NULL,"1","17","49","131.05",NULL,"2013-03-15 11:13:21","Asia/Vladivostok",NULL,"W","179746588"
"736","Раменское","Ramenskoe","ramenskoe",NULL,"1","70","55.567321","38.225804",NULL,"2013-03-15 11:13:21","Europe/Moscow",NULL,"R","3485815"
"737","Тымовск","Tymovsk","tymovsk",NULL,"1","87","50.51","142.39",NULL,"2013-03-15 11:13:21","Asia/Sakhalin","2021-03-15 08:18:13",NULL,NULL
"738","Янаул","Yanaul","yanaul",NULL,"1","7","56.264957","54.929824",NULL,"2013-03-15 11:13:21","Asia/Yekaterinburg",NULL,"W","45764785"
"739","Зеленоград","Zelenograd","zelenograd",NULL,"1","70","55.980749","37.176759",NULL,"2013-03-15 11:13:21","Europe/Moscow",NULL,"R","1988678"
"740","Еманжелинск","Emanzhelinsk","emanzhelinsk",NULL,"1","103","54.7599031","61.3443852",NULL,"2013-03-15 11:13:21","Asia/Qostanay",NULL,"W","32225029"
"741","Железноводск","Zheleznovodsk","zheleznovodsk",NULL,"1","91","44","43",NULL,"2013-03-15 11:13:21","Asia/Tbilisi",NULL,"R","2436485"
"742","Георгиевск","Georgievsk","georgievsk",NULL,"1","91","44.15","43.4666667",NULL,"2013-03-15 11:13:21","Asia/Tbilisi",NULL,"R","4132445"
"743","Усть-Уда","Ust-Uda","ust-uda",NULL,"1","20","55.65","104.6",NULL,"2013-03-15 11:13:21","Asia/Irkutsk",NULL,"W","173719794"
"744","Урень","Uren","uren",NULL,"1","73","57.46","45.7847",NULL,"2013-03-15 11:13:21","Europe/Kirov",NULL,"W","128541406"
"745","Приобье","Priobie","priobie",NULL,"1","246","62.5461111","65.6261111",NULL,"2013-03-15 11:13:21","Asia/Yekaterinburg",NULL,"W","36239009"
"746","Эстосадок","Estosadok","estosadok",NULL,"1","34","43.683019","40.265279",NULL,"2013-03-15 11:13:21","Asia/Tbilisi",NULL,NULL,NULL
"747","Березово","Berezovo","berezovo","EZV","1","246","63.9344444","65.0444444",NULL,"2013-03-15 11:13:21","Asia/Yekaterinburg",NULL,"R","3391496"
"748","Ногинск","Noginsk","noginsk",NULL,"1","70","55.853581","38.442171",NULL,"2013-03-15 11:13:21","Europe/Moscow",NULL,"W","37202846"
"749","Московская область","Moscow region","moscow-region",NULL,"1","70","55.75277412993711","37.62532689531229",NULL,"2013-03-15 11:13:21","Europe/Moscow","2021-03-15 08:18:13",NULL,NULL
"750","Няндома","Nyandoma","nyandoma",NULL,"1","5","61.6666667","40.2",NULL,"2013-03-15 11:13:21","Europe/Kirov",NULL,"R","3729590"
"751","Вена","Vienna","vienna","VIE","22",NULL,"48.21000032091387","16.371174812316884","1","2013-03-15 11:13:21","Europe/Vienna",NULL,"R","109166"
"752","Ленинградская область","Leningrad Region","leningrad-region",NULL,"1","38","0","0",NULL,"2013-03-15 11:13:21","UTC","2021-03-15 08:18:13",NULL,NULL
"753","Заволжье","Zavolzhye","zavolzhye",NULL,"1","73","56.640441","43.387164",NULL,"2013-03-15 11:13:21","Europe/Moscow",NULL,"R","3382122"
"754","Мелеуз","Meleuz","meleuz",NULL,"1","7","52.95","55.933333",NULL,"2013-03-15 11:13:21","Asia/Aqtobe",NULL,"W","31001613"
"755","Астраханка","Astrakhanka","astrakhanka",NULL,"1","81","44.7179","132.0537",NULL,"2013-03-15 11:13:21","Asia/Vladivostok",NULL,NULL,NULL
"756","Заринск","Zarinsk","zarinsk",NULL,"1","3","53","84",NULL,"2013-03-15 11:13:21","Asia/Barnaul",NULL,"R","6645940"
"757","Арзамас","Arzamas","arzamas",NULL,"1","73","55.401749","43.817241",NULL,"2013-03-15 11:13:21","Europe/Ulyanovsk",NULL,"R","1582236"
"758","Жирновск","Zhirnovsk","zhirnovsk",NULL,"1","13","50.9833333","44.7666667",NULL,"2013-03-15 11:13:21","Europe/Saratov",NULL,"W","150237072"
"759","Берлин","Berlin","berlin","BER","13",NULL,"52.52436828613281","13.410530090332031","1","2013-03-15 11:13:21","Europe/Berlin",NULL,"N","240109189"
"760","Заводоуковск","Zavodoukovsk","zavodoukovsk",NULL,"1","98","56.5","66.55",NULL,"2013-03-15 11:13:21","Asia/Yekaterinburg",NULL,"W","184177753"
"761","Крымск","Krymsk","krymsk",NULL,"1","34","44.56","39",NULL,"2013-03-15 11:13:21","Europe/Simferopol",NULL,"R","5328559"
"762","Сестрорецк","Sestroretsk","sestroretsk",NULL,"1","38","60.093405","29.9618263",NULL,"2013-03-15 11:13:21","Europe/Helsinki",NULL,"R","1115677"
"763","Дубай","Dubai","dubai","DXB","30",NULL,"25.258169174194336","55.30472183227539","1","2013-03-15 11:13:21","Asia/Dubai",NULL,"N","31248510"
"764","Краснокаменск","Krasnokamensk","krasnokamensk-novisibirskaya-oblast",NULL,"1","35","54.339699","93.255062",NULL,"2013-03-15 11:13:21","Asia/Krasnoyarsk",NULL,"R","6029365"
"765","Реж","Rezh","rezh",NULL,"1","88","57.3650111","61.4185888",NULL,"2013-03-15 11:13:21","Asia/Yekaterinburg",NULL,"W","58073602"
"766","Сорочинск","Sorochinsk","sorochinsk",NULL,"1","77","52.4333","53.1667",NULL,"2013-03-15 11:13:21","Asia/Oral",NULL,"R","9629431"
"768","Прага","Prague","prague","PRG","31",NULL,"50.08803939819336","14.420760154724121","1","2013-03-15 11:13:21","Europe/Prague",NULL,NULL,NULL
"769","Верхний Уфалей","Verkhniy Ufaley","verkhniy-ufaley","ZZZ","1","103","56.05","60.2333333",NULL,"2013-03-15 11:13:21","Asia/Yekaterinburg",NULL,"R","10089244"
"770","Белоярский","Beloyarskiy","beloyarskiy","EYK","1","246","63.710887","66.679625",NULL,"2013-03-15 11:13:21","Asia/Yekaterinburg",NULL,"W","37287594"
"771","Алушта","Alushta","alushta","АЛТ","1","240","44.667","34.417",NULL,"2013-03-15 11:13:21","Europe/Simferopol",NULL,"R","2865697"
"772","Кореновск","Korenovsk","korenovsk",NULL,"1","34","45.45","39.45",NULL,"2013-03-15 11:13:21","Europe/Zaporozhye",NULL,"W","32885388"
"773","Сростки","Srostki","srostki",NULL,"1","3","52","85",NULL,"2013-03-15 11:13:21","Asia/Barnaul",NULL,NULL,NULL
"774","Семей","Semei","semei","PLX","3",NULL,"50.419823092049","80.256947150695",NULL,"2013-03-15 11:13:21","Asia/Aqtau",NULL,"R","7615261"
"775","Майминский р-н","Mayminskiy","mayminskiy",NULL,"1","2","0","0",NULL,"2013-03-15 11:13:21","UTC",NULL,"R","192563"
"776","Манжерок","Manzherok","manzherok",NULL,"1","2","51","85",NULL,"2013-03-15 11:13:21","Asia/Barnaul",NULL,NULL,NULL
"777","Ая","Aya","aya",NULL,"1","2","51","85",NULL,"2013-03-15 11:13:21","Asia/Barnaul",NULL,NULL,NULL
"778","Катунь","Katyn","katyn",NULL,"1","2","51.91531","85.851866",NULL,"2013-03-15 11:13:21","Asia/Barnaul",NULL,"R","3480776"
"779","Красноуфимск","Krasnoufimsk","krasnoufimsk",NULL,"1","88","56.6166667","57.7666667",NULL,"2013-03-15 11:13:21","Asia/Yekaterinburg",NULL,"R","5820648"
"780","Луга","Luga","luga",NULL,"1","38","58.7333333","29.85",NULL,"2013-03-15 11:13:21","Europe/Tallinn",NULL,"R","2705630"
"781","Новочеркасск","Novocherkassk","novocherkassk",NULL,"1","83","47.4166667","40.0833333",NULL,"2013-03-15 11:13:21","Europe/Volgograd",NULL,"R","1281564"
"782","Славянск-на-Кубани","Slavyansk-On-Kuban","slavyansk-on-kuban",NULL,"1","34","45.2697992","38.148163",NULL,"2013-03-15 11:13:21","Europe/Simferopol",NULL,"R","6724534"
"783","Одинцово","Odintsovo","odintsovo",NULL,"1","70","55.68","37.28",NULL,"2013-03-15 11:13:21","Europe/Moscow",NULL,"R","1667827"
"784","Зеленогорск","Zelenogorsk","zelenogorsk-krasnoyarskij-kraj",NULL,"1","35","56.113236","94.588934",NULL,"2013-03-15 11:13:21","Asia/Krasnoyarsk",NULL,"R","3511823"
"785","Мегион","Megion","megion",NULL,"1","246","61.05","76.1",NULL,"2013-03-15 11:13:21","Asia/Omsk",NULL,"R","6954245"
"786","Муравленко","Muravlenko","muravlenko",NULL,"1","109","63.7753","74.5189",NULL,"2013-03-15 11:13:21","Asia/Omsk",NULL,"W","41126264"
"787","Арей","Arei","arei",NULL,"1","200","50.9643","111.2459",NULL,"2013-03-15 11:13:21","Asia/Chita",NULL,NULL,NULL
"788","Лангепас","Langepas","langepas",NULL,"1","246","61.2643","75.165",NULL,"2013-03-15 11:13:21","Asia/Omsk",NULL,"R","3555800"
"789","Кингисепп","Kingisepp","kingisepp",NULL,"1","38","59.36086964494345","28.60699463635684",NULL,"2013-03-15 11:13:21","Europe/Tallinn",NULL,"R","1663601"
"790","Евпатория","Evpatoriya","evpatoriya","ЕВЬ","1","240","45.2","33.35",NULL,"2013-03-15 11:13:21","Europe/Simferopol",NULL,NULL,NULL
"792","Сеул","Seoul","seoul","SEL","33",NULL,"37.566001892089844","126.97840118408203","1","2013-03-15 11:13:21","Asia/Seoul",NULL,"R","2297418"
"793","Рефтинский","Reftinsky","reftinsky",NULL,"1","88","57.091297","61.67442",NULL,"2013-03-15 11:13:21","Asia/Yekaterinburg",NULL,"R","1643660"
"794","Алапаевск","Alapaevsk","alapaevsk",NULL,"1","88","57.85","61.7",NULL,"2013-03-15 11:13:21","Asia/Yekaterinburg",NULL,"R","2719754"
"795","Дорогобуж","Dorogobugh","dorogobugh",NULL,"1","90","54.92","33.3",NULL,"2013-03-15 11:13:21","Europe/Moscow",NULL,"R","4483398"
"796","Симферополь","Simferopol","simferopol","SIP","1","240","44.957191467285","34.110790252686","1","2013-03-15 11:13:21","Europe/Simferopol",NULL,"R","3030295"
"797","Воткинск","Votkinsk","votkinsk","IJK","1","99","57.0607694","53.9974374",NULL,"2013-03-15 11:13:21","Europe/Samara",NULL,"R","6821103"
"799","Рузаевка","Ruzaevka","ruzaevka",NULL,"1","42","54.058268","44.94911",NULL,"2013-03-15 11:13:21","Europe/Ulyanovsk",NULL,"R","1537976"
"800","Десногорск","Desnogorsk","desnogorsk",NULL,"1","90","54.153086","33.290292",NULL,"2013-03-15 11:13:21","Europe/Moscow",NULL,"R","4541938"
"801","Заречный","Zarechniy","zarechniy",NULL,"1","88","56.816667","61.316667",NULL,"2013-03-15 11:13:21","Asia/Yekaterinburg",NULL,"W","38608343"
"802","Нововоронеж","Novovoronedg","novovoronedg",NULL,"1","15","51.19","39.13",NULL,"2013-03-15 11:13:21","Europe/Volgograd",NULL,"W","39375442"
"803","Лесогорский","Lesogorskiy","lesogorskiy",NULL,"1","38","61.02","28.55",NULL,"2013-03-15 11:13:21","Europe/Helsinki",NULL,NULL,NULL
"804","Пушкин","Pushkin","pushkin",NULL,"1","38","59.71703061288978","30.414237022399885",NULL,"2013-03-15 11:13:21","Europe/Helsinki",NULL,"R","359179"
"805","Сланцы","Slancy","slancy",NULL,"1","38","59.07","28.05",NULL,"2013-03-15 11:13:21","Europe/Tallinn",NULL,"R","3172317"
"806","Удомля","Udomlya","udomlya",NULL,"1","94","57.53","35.01",NULL,"2013-03-15 11:13:21","Europe/Moscow",NULL,"R","3382017"
"807","Домодедово","Domodedovo","domodedovo","DME","1","70","55.26","37.45",NULL,"2013-03-15 11:13:21","Europe/Moscow",NULL,"R","1360937"
"808","Химки","Khimki","khimki",NULL,"1","70","55.88772283454424","37.43061604294767",NULL,"2013-03-15 11:13:21","Europe/Moscow",NULL,"R","181326"
"809","Каспийск","Kaspiysk","kaspiysk",NULL,"1","16","42.889043985275976","47.617407684326174",NULL,"2013-03-15 11:13:21","Asia/Tbilisi",NULL,"R","2131434"
"810","Клинцы","Klintsy","klintsy",NULL,"1","9","52.752608","32.233904",NULL,"2013-03-15 11:13:21","Europe/Kiev",NULL,"R","4464145"
"811","Октябрьское","Oktyabrskoe","oktyabrskoe",NULL,"1","98","62.456746","66.042181",NULL,"2013-03-15 11:13:21","Asia/Yekaterinburg",NULL,"W","113729197"
"812","Киржач","Kirzhach","kirzhach",NULL,"1","12","56.09","38.52",NULL,"2013-03-15 11:13:21","Europe/Moscow",NULL,"R","1426427"
"813","Хасавюрт","Hasavurt","hasavurt",NULL,"1","16","43.246265","46.590044",NULL,"2013-03-15 11:13:21","Asia/Tbilisi",NULL,"R","4185743"
"814","Тампере","Tampere","tampere","TMP","12",NULL,"61.49911117553711","23.787120819091797",NULL,"2013-03-15 11:13:21","Europe/Helsinki",NULL,"R","3579531"
"815","Вешенская","Veshenskaya","veshenskaya",NULL,"1","83","49.631706","41.728371",NULL,"2013-03-15 11:13:21","Europe/Volgograd",NULL,"W","264218547"
"817","Кёльн","COLOGNE","cologne","CGN","13",NULL,"50","6","1","2013-03-15 11:13:21","Europe/Berlin",NULL,NULL,NULL
"818","Багдарин","Bagdarin","bagdarin",NULL,"1","10","54.444753595488","113.58321582436",NULL,"2013-03-15 11:13:21","Asia/Chita",NULL,"W","173522723"
"819","Ноглики","Nogliki","nogliki","NGK","1","87","51.796498","143.13303",NULL,"2013-03-15 11:13:21","Asia/Sakhalin",NULL,"W","234892710"
"820","Ржев","Rzhev","rzhev",NULL,"1","94","56.262409210205","34.328170776367",NULL,"2013-03-15 11:13:21","Europe/Moscow",NULL,"R","1480489"
"821","Новый Энхалук","Novyi Enhaluk","novyi-enhaluk",NULL,"1","10","52.484051","106.967431",NULL,"2013-03-15 11:13:21","Asia/Irkutsk",NULL,NULL,NULL
"822","Солнечногорск","Solnechnogorsk","solnechnogorsk",NULL,"1","70","56.18333053588867","36.98332977294922",NULL,"2013-03-15 11:13:21","Europe/Moscow",NULL,"R","3806638"
"823","Энгельс","Engels","engels",NULL,"1","86","51.466667","46.116667",NULL,"2013-03-15 11:13:21","Europe/Saratov",NULL,"R","4869409"
"824","Вытегра","Vytegra","vytegra",NULL,"1","14","61.006521356873264","36.44937742971678",NULL,"2013-03-15 11:13:21","Europe/Moscow",NULL,"R","10977309"
"826","Кропоткин","Kropotkin","kropotkin",NULL,"1","34","45.432932","40.572859",NULL,"2013-03-15 11:13:21","Europe/Volgograd",NULL,"R","4636537"
"827","Краснореченск","Krasnorechensk","krasnorechensk",NULL,"1","101","0","0",NULL,"2013-03-15 11:13:21","UTC",NULL,NULL,NULL
"828","Краснокамск","Krasnokamsk","krasnokamsk",NULL,"1","80","58.081972","55.747713",NULL,"2013-03-15 11:13:21","Asia/Yekaterinburg",NULL,"N","272625640"
"829","Вышний Волочек","Vyshnii Volochek","vyshnii-volochek",NULL,"1","94","57.583395","34.560083",NULL,"2013-03-15 11:13:21","Europe/Moscow",NULL,NULL,NULL
"830","Балашов","Balashov","balashov","ZZZ","1","86","51.554538","43.146544",NULL,"2013-03-15 11:13:21","Europe/Saratov",NULL,"R","6441219"
"831","Медвежьегорск","Medvezhiegorsk","medvezhiegorsk",NULL,"1","28","62.912675","34.457222",NULL,"2013-03-15 11:13:21","Europe/Helsinki",NULL,"R","5518935"
"832","Бухарест","Bucharest","bucharest","BUH","34",NULL,"44.4322509765625","26.106260299682617","1","2013-03-15 11:13:21","Europe/Bucharest",NULL,"R","377733"
"833","Черновцы","Chernіvtsi","chernovtsy","CWC","2",NULL,"48.318897","25.92599",NULL,"2013-03-15 11:13:21","Europe/Uzhgorod",NULL,"R","1742393"
"834","Луганск","Lugansk","lugansk","VSG","1","8232","48.567050933838","39.317058563232",NULL,"2013-03-15 11:13:21","Europe/Zaporozhye",NULL,"R","2171253"
"835","Белозерск","Belozersk","belozersk",NULL,"1","14","60.03149323943916","37.793097496032665",NULL,"2013-03-15 11:13:21","Europe/Moscow",NULL,"W","85033753"
"838","Атланта","Atlanta","atlanta","ATL","19",NULL,"33.75322158632884","-84.39306735992436",NULL,"2013-03-15 11:13:21","America/New_York",NULL,"R","119557"
"841","Ленинградская","Leningradskaya","leningradskaya",NULL,"1","34","46.322557","39.383759",NULL,"2013-03-15 11:13:21","Europe/Zaporozhye",NULL,"R","6576053"
"842","Темрюк","Temryuk","temryuk",NULL,"1","34","47.893857","37.982962",NULL,"2013-03-15 11:13:21","Europe/Zaporozhye",NULL,"W","39371845"
"843","Хошимин","Ho Chi Minh","ho-chi-minh","SGN","36",NULL,"10.823019981384277","106.62964630126953",NULL,"2013-03-15 11:13:21","Asia/Ho_Chi_Minh",NULL,NULL,NULL
"844","Коломна","Kolomna","kolomna",NULL,"1","70","55.079174","38.797183",NULL,"2013-03-15 11:13:21","Europe/Moscow",NULL,"R","1703080"
"846","Тарб","Tarbes","tarbes","LDE","11",NULL,"43.23332977294922","0.08332999795675278",NULL,"2013-03-15 11:13:21","Europe/Andorra",NULL,"R","159060"
"847","Брюссель","Brussels","brussels","BRU","37",NULL,"50.85044860839844","4.348780155181885","1","2013-03-15 11:13:21","Europe/Brussels",NULL,"R","58274"
"848","Гулькевичи","Gulkevichi","gulkevichi",NULL,"1","34","45.35750208249593","40.6948298782275",NULL,"2013-03-15 11:13:21","Europe/Volgograd",NULL,"W","128523669"
"850","Киров","Kirov","kirov-kaluga-region","KVX","1","25","54.071771807737","34.295434579253",NULL,"2013-03-15 11:13:21","Europe/Kirov",NULL,"R","2383150"
"851","Магри","Magri","magri",NULL,"1","34","44.022128","39.16024",NULL,"2013-03-15 11:13:21","Europe/Simferopol",NULL,NULL,NULL
"852","Шахты","Shakhty","shakhty",NULL,"1","83","47.707174","40.209045",NULL,"2013-03-15 11:13:21","Europe/Volgograd",NULL,"R","1482451"
"853","Знаменск","Znamensk","znamensk",NULL,"1","6","48.584201812744","45.733798980713",NULL,"2013-03-15 11:13:21","Europe/Volgograd",NULL,"R","1945553"
"854","Каргополь","Kargopol","kargopol",NULL,"1","5","61.505268","38.946898",NULL,"2013-03-15 11:13:21","Europe/Moscow",NULL,"R","2087612"
"855","Лобня","Lobnya","lobnya",NULL,"1","70","56.01","37.29",NULL,"2013-03-15 11:13:21","Europe/Moscow",NULL,"R","173790"
"856","Ольборг","Aalborg","aalborg","AAL","38",NULL,"57.04800033569336","9.918700218200684",NULL,"2013-03-15 11:13:21","Europe/Copenhagen",NULL,"N","2247730880"
"858","Стамбул","Istanbul","istanbul","IST","35",NULL,"41","28.57","1","2013-03-15 11:13:21","Europe/Istanbul",NULL,"N","1882099475"
"859","Дрезден","Dresden","dresden","DRS","13",NULL,"51.02","13.44",NULL,"2013-03-15 11:13:21","Europe/Berlin",NULL,"R","191645"
"860","Апшеронск","Apsheronsk","apsheronsk",NULL,"1","34","44.4647216796875","39.734169006347656",NULL,"2013-03-15 11:13:21","Europe/Simferopol",NULL,"R","4275412"
"861","Семенов","Semenov","semenov",NULL,"1","73","56.799378","44.502823",NULL,"2013-03-15 11:13:21","Europe/Kirov",NULL,NULL,NULL
"862","Селятино","Selyatino","selyatino",NULL,"1","70","55.515140533447266","36.97745895385742",NULL,"2013-03-15 11:13:21","Europe/Moscow",NULL,"W","37756820"
"863","Косалма","Kosalma","kosalma",NULL,"1","28","62.020903","34.123503",NULL,"2013-03-15 11:13:21","Europe/Helsinki",NULL,NULL,NULL
"864","Даховская","Dakhovskaya","dakhovskaya",NULL,"1","1","44.228426","40.201262",NULL,"2013-03-15 11:13:21","Asia/Tbilisi",NULL,NULL,NULL
"865","Байконур","Baikonur","baikonur","BXY","3","30","45","63",NULL,"2013-03-15 11:13:21","Asia/Aqtau",NULL,"W","39209179"
"866","Марево","Marevo","marevo",NULL,"1","74","57.311096","32.080635",NULL,"2013-03-15 11:13:21","Europe/Moscow",NULL,NULL,NULL
"867","Большое Руново","Bolshoe Runovo","bolshoe-runovo",NULL,"1","70","54.85522","38.338284",NULL,"2013-03-15 11:13:21","Europe/Moscow",NULL,NULL,NULL
"868","Мариуполь","Mariupol","mariupol","MPW","1","8229","47.118006373976","37.561957435608",NULL,"2013-03-15 11:13:21","Europe/Zaporozhye",NULL,"R","1748539"
"869","Херсон","Kherson","kherson","KHE","1","8238","46.38","32.36",NULL,"2013-03-15 11:13:21","Europe/Simferopol",NULL,"R","2175078"
"870","Лиссабон","Lisbon","lisbon","LIS","40",NULL,"38.716670989990234","-9.133330345153809",NULL,"2013-03-15 11:13:21","Europe/Lisbon",NULL,"R","5400890"
"871","Орехово-Зуево","Orekhovo-Zuevo","orekhovo-zuevo",NULL,"1","70","55.808813","38.977766",NULL,"2013-03-15 11:13:21","Europe/Moscow",NULL,"R","1462341"
"872","Петергоф","Petergof","petergof",NULL,"1","38","59.883074","29.908158",NULL,"2013-03-15 11:13:21","Europe/Helsinki",NULL,"R","367377"
"873","Новомосковск","Novomoskovsk","novomoskovsk",NULL,"1","97","54.010501861572","38.284599304199",NULL,"2013-03-15 11:13:21","Europe/Moscow",NULL,"R","1991064"
"874","Дмитров","Dmitrov","dmitrov-moscow-region",NULL,"1","70","56.340888828922964","37.52002841949464",NULL,"2013-03-15 11:13:21","Europe/Moscow",NULL,"W","55625709"
"875","Лазаревское","Lazarevskoe","lazarevskoe",NULL,"1","34","43.910476720950626","39.33080312455069",NULL,"2013-03-15 11:13:21","Europe/Simferopol",NULL,NULL,NULL
"876","Витязево поселок","Vitayzevo village","vitayzevo",NULL,"1","34","44.98441419483871","37.25864356878653",NULL,"2013-03-15 11:13:21","Europe/Simferopol",NULL,NULL,NULL
"877","Сукко","Sukko","sukko",NULL,"1","34","44.47","37.25",NULL,"2013-03-15 11:13:21","Europe/Simferopol",NULL,NULL,NULL
"878","Адлер","Adler","adler-sochi",NULL,"1","34","43.42895318026991","39.921110186381725","2","2013-03-15 11:13:21","Asia/Tbilisi",NULL,"N","207721468"
"879","Дагомыс","Dagomys","dagomys",NULL,"1","34","43.65272142664497","39.64885473532714",NULL,"2013-03-15 11:13:21","Europe/Simferopol",NULL,NULL,NULL
"880","Эсто-Садок, Сочи","Esto-Sadok, Sochi","esto-sadok-sochi",NULL,"1",NULL,"43.41","40.15",NULL,"2013-03-15 11:13:21","Asia/Tbilisi","2021-03-15 08:18:13",NULL,NULL
"881","Красная Поляна","Krasnaya Polyana","krasnaya-polyana",NULL,"1","34","43.679021362690584","40.20689096663651",NULL,"2013-03-15 11:13:21","Asia/Tbilisi",NULL,"R","1440683"
"882","Лоо","Loo","loo",NULL,"1","34","43.70256765579351","39.586830139160156",NULL,"2013-03-15 11:13:21","Europe/Simferopol",NULL,NULL,NULL
"883","Карталы","Kartaly","kartaly","ZZZ","1","103","53.053448","60.648096",NULL,"2013-03-15 11:13:21","Asia/Qostanay",NULL,"W","113729193"
"884","Повенец","Povenets","povenets",NULL,"1","28","62.848788","34.823929",NULL,"2013-03-15 11:13:21","Europe/Helsinki",NULL,NULL,NULL
"885","Павловская","Pavlovskaya","pavlovskaya-village-stanitsa-pavlovskaya",NULL,"1","34","46.134683","39.789968",NULL,"2013-03-15 11:13:21","Europe/Zaporozhye",NULL,"W","49047099"
"886","Ливны","Livny","livny",NULL,"1","78","52.425338745117","37.60689163208",NULL,"2013-03-15 11:13:21","Europe/Moscow",NULL,"R","3344220"
"888","Тавда","Tavda","tavda",NULL,"1","88","58.04254150390625","65.2725830078125",NULL,"2013-03-15 11:13:21","Asia/Yekaterinburg",NULL,"R","1354343"
"890","Каневская","Kanevskaya","kanevskaya",NULL,"1","34","46.074615","38.972798",NULL,"2013-03-15 11:13:21","Europe/Zaporozhye",NULL,"W","77346271"
"891","Серпухов","Serpuhov","serpuhov",NULL,"1","70","54.55","37.24",NULL,"2013-03-15 11:13:21","Europe/Moscow",NULL,"W","557235151"
"892","Чаны","Chany","chany",NULL,"1","75","55.309171","76.761382",NULL,"2013-03-15 11:13:21","Asia/Omsk",NULL,"W","51228848"
"893","Новоспасское","Novospasskoe","novospasskoe",NULL,"1","100","53.148811","47.753076",NULL,"2013-03-15 11:13:21","Europe/Ulyanovsk",NULL,"W","177153661"
"895","Болонья","Bologna","bologna","BLQ","23",NULL,"44.49380874633789","11.338749885559082",NULL,"2013-03-15 11:13:21","Europe/Rome",NULL,"R","43172"
"896","Макао","Macau","macau","MFM","14",NULL,"22.197882005411923","113.54788378432607","1","2013-03-15 11:13:21","Asia/Macau",NULL,"R","1867188"
"897","Андреаполь","Andreapol","andreapol",NULL,"1","94","56.653317255873","32.272143537644",NULL,"2013-03-15 11:13:21","Europe/Moscow",NULL,"R","3382046"
"898","Подпорожье","Podporozhie","podporozhie",NULL,"1","38","60.912805","34.156298",NULL,"2013-03-15 11:13:21","Europe/Helsinki",NULL,"R","1547448"
"899","Беломорск","Belomorsk","belomorsk",NULL,"1","28","64.537605","34.780083",NULL,"2013-03-15 11:13:21","Europe/Helsinki",NULL,"W","97171841"
"900","Дюссельдорф","Dusseldorf","dusseldorf","DUS","13",NULL,"51.22172164916992","6.776159763336182","1","2013-03-15 11:13:21","Europe/Berlin",NULL,"R","62539"
"901","Новоабзаково","Novoabzakovo","novoabzakovo",NULL,"1","7","53.80804418936821","58.644",NULL,"2013-03-15 11:13:21","Asia/Qostanay",NULL,NULL,NULL
"903","Волгореченск","Volgorechensk","volgorechensk",NULL,"1","33","57.433333","41.166667",NULL,"2013-03-15 11:13:21","Europe/Moscow",NULL,"R","6634192"
"904","Кассель","Kassel","kassel","KSF","13",NULL,"51.31666946411133","9.5",NULL,"2013-03-15 11:13:21","Europe/Berlin",NULL,"R","62598"
"906","Ивдель","Ivdel","ivdel",NULL,"1","88","60.697349","60.41729",NULL,"2013-03-15 11:13:21","Asia/Yekaterinburg",NULL,"W","42064807"
"907","Гатчина","Gatchina","gatchina",NULL,"1","38","59.559595","30.103069",NULL,"2013-03-15 11:13:21","Europe/Helsinki",NULL,"R","1316250"
"908","Аксай","Aksay","aksay",NULL,"1","83","47.266667","39.866667",NULL,"2013-03-15 11:13:21","Europe/Zaporozhye",NULL,"R","1118894"
"909","Гавана","Havana","havana","HAV","41",NULL,"23.133020401000977","-82.38304138183594",NULL,"2013-03-15 11:13:21","America/Havana",NULL,"R","1854615"
"910","Алатырь","Alatyr","alatyr",NULL,"1","106","54.842437","46.568517",NULL,"2013-03-15 11:13:21","Europe/Ulyanovsk",NULL,"R","4784084"
"912","Стокгольм","Stockholm","stockholm","STO","42",NULL,"59.33258056640625","18.064899444580078","1","2013-03-15 11:13:21","Europe/Stockholm",NULL,"N","25929985"
"915","Ишимбай","Ishimbai","ishimbai",NULL,"1","7","53.454166","56.044829",NULL,"2013-03-15 11:13:21","Asia/Aqtobe",NULL,"W","254301352"
"916","Рим","Rome","rome","ROM","23",NULL,"41.89474105834961","12.48390007019043","1","2013-03-15 11:13:21","Europe/Rome",NULL,"R","41485"
"917","Сухой Лог","Suhoi Log","suhoi-log",NULL,"1","88","56.905431","62.035542",NULL,"2013-03-15 11:13:21","Asia/Yekaterinburg",NULL,"W","39370849"
"918","Абзаково","Abzakovo","abzakovo",NULL,"1","7","53.831546","58.590899",NULL,"2013-03-15 11:13:21","Asia/Qostanay",NULL,NULL,NULL
"919","Киселёвск","Kiselevsk","kiselevsk",NULL,"1","29","53.990001678467","86.662101745605",NULL,"2013-03-15 11:13:21","Asia/Novokuznetsk",NULL,"R","1735835"
