"id","code_en","code_ru","name_en","city_code_en","country_code_ru","country_code_en","timezone","latitude","longitude","city_id","del","osm_type","osm_id"
"10551","SPB",,"Charlotte Amalie Harbor Seaplane Base","STT",,"US","-04:00","18.33822","-64.9393638",NULL,"0","N","368381910"
"13873","XOC",,"Madrid Atocha railway station","MAD",,"ES","+02:00","40.4069749","-3.6886008","1005","0","N","5299314576"
"13870","ВГЖ",,"Vologda railway station","VGD","РФ","RU","+03:00","59.2069881","39.8831262","292","0","N","1878204936"
"13867","ЯРЖ",,"Yaroslavl Main railway station","IAR","РФ","RU","+03:00","57.6256015","39.8353002","29","0","N","4016637106"
"13866","MRA",,"Misrata International Airport","MRA","ЛЫ","LY","+02:00","32.326484300000004","15.060931648759212","9144","0","W","462399206"
"13863","DHC",,"Bremen Central railway station","BRE",,"DE","+02:00","53.08347","8.813745904798823","3337","0","W","353191509"
"13860","SWV","СВЕ","Severo-Evensk Airport","SWV","РФ","RU","+11:00","61.9225","159.2274","289257","0","W","75208120"
"13857","YJB",,"Barcelona Sants Railway Station","BCN",,"ES","+02:00","41.37915605","2.140151510062726","698","0","W","134565983"
"13854","HZA",,"Heze Peony Airport","HZA",,"CN","+08:00","35.2110652","115.73368115631939","124704","0","W","386595752"
"13853","UKG","УКУ","Ust-Kuyga","UKG","РФ","RU","+10:00","70.01245","135.6518","289250","0","N","4545284520"
"13850","XYD",,"Lyon Airport","LYS",,"FR","+02:00","45.725556","5.08166","2338","0","N","2026972606"
"13844","AGY",,"Argyle Downs Airport","WYN",,"AU","+08:00","-16.508604","128.922485","24951","0","W","140336970"
"13841","EAP",,"EuroAirport Basel Mulhouse Freiburg","MLH",,"FR","+02:00","47.603236949999996","7.52434812773247","2302","0","W","231093392"
"13838","WDS",,"Shiyan Wudangshan Airport","WDS","ЦН","CN","+08:00","32.59258265","110.90677361967343","3546","0","W","539199354"
"13836","DZH",,"Dazhou Jinya Airport","DZH",,"CN","+08:00","31.05057705","107.43698222297508","40828","0","W","795301574"
"13833","YYA",,"Yueyang Sanhe Airport","YUG",,"CN","+08:00","29.30803435","113.2818135808048","3674","0","W","482793879"
"13830","HCZ",,"Chenzhou Beihu Airport","LQP",,"CN","+08:00","25.75482855","112.84966005166282","3649","0","W","616265819"
"13827","ZVR",,"Airport Hanover Central Station","HAJ",,"DE","+02:00","52.3769504","9.7416533","1131","0","N","3059639307"
"13824","ZLP",,"Airport at Zurich Railway Station","ZRH","ЦХ","CH","+02:00","47.3781008","8.5393635","715","0","N","1236383343"
"13821","DTZ",,"Airport Dortmund Railway Station","DTM",,"DE","+02:00","51.5178935","7.4592831","3281","0","N","1458488633"
"13818","QXR",,"Radom-Piastuv Airport","RDO",,"PL","+02:00","51.47945165","21.109212803803967","5410","0","W","286252799"
"13815","RDO",,"Warsaw-Radom Airport","RDO",,"PL","+02:00","51.38902645","21.21461175587696","5410","0","W","616266929"
"13812","HSR",,"Rajkot International Airport","RAJ","ИН","IN","+5:30","22.388056","71.028333","7170","0",NULL,NULL
"13809","ZWE",,"Airport Antwerpen-Centraal Railway Station","ANR","БЕ","BE","+02:00","51.2159949","4.4211011","1052","0","N","348421822"
"13806","GOX",,"Manohar International Airport","GOX","ИН","IN","+05:30","15.736723999999999","73.86901115799385","103152","0","W","952223958"
"13803","ZLZ",,"Airport Bologna Centrale rail station","BLQ",,"IT","+08:00","44.50587435","11.343342245989097","895","0","W","149899620"
"13800","YTY",,"Yangzhou Taizhou Airport","YTY",,"CN","+08:00","32.5608476","119.71641345101672","3508","0","W","235940514"
"13797","XIX",,"Airport Verona Porta Nuova","VRN",,"IT","+02:00","45.429182","10.9823706","4848","0","N","3738591149"
"13794","XVY",,"Airport Venezia Mestre railway station","VCE",,"IT","+02:00","45.482462","12.2317016","1114","0","N","6063641892"
"13791","XVQ",,"Airport Venezia Santa Lucia Railway Station","VCE",,"IT","+02:00","45.4410753","12.3210322","1114","0","N","6063641885"
"13788","YJI",,"Airport Bilbao Abando Railway Station","BIO",,"ES","+02:00","43.25984355","-2.9286185927930504","6096","0","W","28776478"
"13785","YJV",,"Airport València North Station","VLC",,"ES","+02:00","39.46631575","-0.3773735384139105","5757","0","W","10153012"
"13782","SAI",,"Siem Reap Angkor International Airport","SAI",,"SM","+02:00","13.367825199999999","104.21548426958037","13529","0","W","752910758"
"13779","TPY",,"Airport Torino Porta Nuova Railway station","TRN","ИТ","IT","+02:00","45.060896","7.6775203","4863","0","N","3395226356"
"13776","FIR",,"Airport Firenze Campo di Marte","FLR","ИТ","IT","+02:00","43.7775989","11.2766652","1116","0","N","8033523329"
"13773","XED",,"Marne-la-Vallée - Chessy railway station airport","XED","ФР","FR","+02:00","48.87035695","2.7828184635140527","31611","0","W","1165411503"
"13770","NKT",,"Şırnak Airport","NKT","ТР","TR","+03:00","37.3645453","42.05571232392907","6521","0","W","231996136"
"13767","KOV",,"Airport Kokshetau","KOV",,"KZ","+05:00","53.29653915","69.41087047328548","552","0","W","42199811"
"13764","GEC",,"Geçitkale Air Base","GEC",,"CY","+02:00","35.23600295","33.72248004854772","289158","0","W","13868146"
"13761","QKL",,"Airport central railway station of Cologne","CGN","ДЕ","DE","+02:00","50.9427839","6.9590705","817","0","N","2399559029"
"13758","VUS",,"Velikiy Ustyug Airport","VUS","РФ","RU","+03:00","60.7934202","46.266067439927596","531","0","W","75208068"
"13755","XDS",,"Ottawa Railway Station","YOW",,"CA","-04:00","45.4604889","-75.644122761963","6996","0","W","136325762"
"13752","QRH",,"Airport Rotterdam, Central Railway Station","RTM",,"NL","+02:00","51.9239359","4.4696361","6165","0","N","5193927668"
"13749","НЛН","НЛН","Nelkan Airport","НЛН","РФ","RU","+10:00","57.6402916","136.15862576557663","289143","0","W","367904571"
"13746","XIU",,"Airport Erfurt main railway station","ERF","ДЕ","DE","+02:00","50.9728","11.0378","3248","0","N","1438349930"
"13743","LLV",,"Lüliang Dawu Airport","LLV",,"CN","+08:00","37.6844303","111.14084234317477","120111","0","W","646168239"
"13740","XRJ",,"Roma Termini Railway station airport","ROM",,"IT","+02:00","41.9005815","12.5025272","916","0","N","251904108"
"13737","ZAQ",,"Nuremberg Central Railway Station Airport","NUE","ДЕ","DE","+01:00","49.4477778","11.0683333","2901","0","W","136288748"
"13734","BKA","БКТ","Baykit Airfield","BKA","РФ","RU","+07:00","61.6786058","96.36067150656865","289128","0","W","75208042"
"13731","NGK","НГЛ","Nogliki","NGK","РФ","RU","+11:00","51.7953617","143.1365077","819","0","R","14414341"
"13728","DBR",,"Darbhanga Airport","DBR","ИН","IN","+05:30","26.1967856","85.9118892","107583","0","N","760197881"
"13725","QDU",,"Airport Dusseldorf Hauptbahnhof","DUS","ДЕ","DE","+02:00","51.219444","6.794167","900","0","N","10537619278"
"13722","UIK",,"Ust-Ilimsk","UIK","РФ","RU","+08:00","57.959473","102.734192","326","0","R","2380462"
"13719","ZXE",,"Sculthorpe Airport","ZXE","ГБ","GB","+01:00","52.84527777","0.76722222","76341","0","W","106308126"
"13718","ZWS",,"Airport Stuttgart Main Station","STR","ДЕ","DE","+02:00","48.7856099","9.1833959","1018","0","N","1635698272"
"13717","MGQ",,"Mogadishu Aden Adde International Airport","MGQ","СО","SO","+03:00","2.0140883","45.304041242825505","9697","0","W","673848799"
"13714","OGU",,"Ordu–Giresun Airport","OGU","ТР","TR","+03:00","40.9670354","38.08806847026864","289060","0","W","349521671"
"13711","RZV",,"Rize-Artvin Airport","RZV","ТР","TR","+04:00","41.1751271","40.8460083","6631","0","N","8528043825"
"13709","ТЬК","ТЬК","Tolka Airport","ТЬК","РФ","RU","+05:00","0","0","289037","0",NULL,NULL
"13707","BXY",,"Baikonur Krayniy Airport","BXY",,"KZ","+05:00","45.6212199","63.21455453410996","865","0","W","46410994"
"13704","ЗЛА",,"Gulf of Lawrence Airport","ЗЛА","РФ","RU","+12:00","65.58052805","-170.9985006290808","289032","0","W","520332207"
"13701","PVS",,"Provideniya Bay Airport","PVS","РФ","RU","+12:00","64.3800982","-173.2386276724423","289029","0","W","128380414"
"13698","ЭГТ",,"Bay of the Cross Airport","ЭГТ","РФ","RU","+12:00","66.3584321","-179.10892379046186","289026","0","W","75208241"
"13695","БНГ",,"Beringovsky Airport","БНГ","РФ","RU","+12:00","63.0255136","179.2936001","289023","0","N","1042090010"
"13692","EZV",,"Berezovo Airport","EZV","РФ","RU","+05:00","63.922656950000004","65.03761633944282","747","0","R","4550136"
"13689","УНР",,"Ust-Nera Airport","УНР","РФ","RU","+10:00","64.5499628","143.11385789052775","54933","0","W","75208201"
"13686","IKS","ТСИ","Tiksi Airport","IKS","РФ","RU","+09:00","71.69780095","128.89743950212954","56539","0","W","75208203"
"13683","DPT",,"Deputatskiy Airport","DPT","РФ","RU","+09:00","69.39220535000001","139.88914014647418","289020","0","W","183271442"
"13680","THX",,"Turukhansk Airport","THX","РФ","RU","+07:00","65.80012070000001","87.92869527915198","647","0","W","553623595"
"13677","IAA",,"Igarka Airport","IAA","РФ","RU","+07:00","67.43420384999999","86.63030252298526","328","0","R","2630106"
"13674","СКР","СКР","Severo-Kurilsk Airport","СКР","РФ","RU","+12:00","50.670527050000004","156.12183865341353","288776","0","W","207715922"
"13671","ТИЛ","ТИЛ","Tilichiki Airport","ТИЛ","РФ","RU","+12:00","60.3842975","166.0259975","289017","0","N","421295358"
"13668","ТИГ","ТИГ","Tigil Airport","ТИГ","РФ","RU","+12:00","57.776827","158.71397745000002","289014","0","W","389599603"
"13665","СБО","СБО","Sobolevo Airport","СБО","РФ","RU","+12:00","54.3055967","155.9653311","289011","0","N","956517318"
"13662","ПАН","ПАН","Palana Airport","ПАН","РФ","RU","+12:00","59.08234135","159.89040649666225","289008","0","W","75208213"
"13659","ОСО","ОСО","Ossor Airport","ОСО","РФ","RU","+12:00","59.226760999999996","163.06612670539886","289005","0","W","341343267"
"13656","КСЧ","КСЧ","Krasny Chikoy Airfield","КСЧ","РФ","RU","+09:00","50.3714984","108.7660711766708","550","0","W","664308450"
"13653","LDG","ЛЕШ","Leshukonskoye Airport","LDG","РФ","RU","+03:00","64.89718365","45.727138706151194","57045","0","W","75208231"
"13650","ZVJ",,"EK Bus Station Abu Dhabi Airport","AUH",,"AE","+04:00","24.46761","54.36451","1073","0",NULL,NULL
"13647","LWN",,"Shirak International Airport","LWN",,"AM","+04:00","40.74898255","43.8573469529573","4739","0","W","86340181"
"13644","DMS",,"Airport Dammam Saptco Bus Station","DMS",,"SA","+03:00","26.467396649999998","49.79887844079486","9578","0",NULL,NULL
"13641","ZSB",,"Airport Salzburg Central Station","SZG",,"AT","+02:00","47.812428600000004","13.045962022750345","4758","0","R","5311083"
"13638","QQU",,"Airport London Euston Railway Station","LON","ГБ","GB","+01:00","51.52917015","-0.13477759244490137","641","0","W","4960746"
"13635","XPG",,"Airport Paris Gare du Nord Rail Station","PAR","ФР","FR","+02:00","48.881399","2.357438","500","0","N","5230752679"
"13632","QQS",,"St. Pancras airport","LON","ГБ","GB","+01:00","51.53190705","-0.1266417426290004","641","0","W","4256246"
"13629","QPP",,"Airport Berlin Central Railway Station","BER","ДЕ","DE","+02:00","52.5249451","13.3696614","759","0","N","3856100103"
"13626","ZMU",,"Airport Munich Central Station","MUC","ДЕ","DE","+02:00","48.1408434","11.5552964","498","0","N","2470201868"
"13623","TFU",,"Chengdu Tianfu International Airport","CTU","ЦН","CN","+08:00","30.303551050000003","104.4457087996561","3650","0","W","529454532"
"13620","YJE",,"Airport Alicante Railway Station","ALC","ЕК","ES","+01:00","38.3446009","-0.49545473511360566","5929","0","W","20987191"
"13617","DMB",,"Taraz Airport","DMB","КЗ","KZ","+05:00","42.854462600000005","71.30450095555221","538","0","R","2561586"
"13614","ZMB",,"Airport Hamburg Central Railway Station","HAM","ДЕ","DE","+02:00","53.5531993","10.0064364","615","0","N","1680910488"
"13611","ZYR",,"Airport Brussels South Railway Station","BRU","БЕ","BE","+02:00","50.8356748","4.3362419","847","0","N","17401552"
"13608","XIK",,"Airport Milan Central Railway Station","MIL","ИТ","IT","+02:00","45.4858786","9.2042617","632","0","N","6067258870"
"13605","IBT",,"Airport Bologna Central Railway Station","BLQ","ИТ","IT","+02:00","44.50560025","11.341795833367254","895","0","W","447736873"
"13602","IMR",,"Airport Rogoredo Railway Station","MIL","ИТ","IT","+02:00","45.4336129","9.2386128","632","0","N","9635608905"
"13601","XWC",,"Suedbahnhof Rail","VIE","АТ","AT","+02:00","48.24980185","16.415725183541774","751","0","W","409055409"
"13598","XXQ",,"Keleti Railway Station","BUD","ХУ","HU","+02:00","47.5004554","19.083978562453183","7763","0","R","9906133"
"13595","ОЛН","ОЛН","Olenyok Airport","ОЛН",,,,"0","0","57180","0",NULL,NULL
"13589","TJU","TJU","Kulob Airport","TJU",,"TJ","+05:00","37.5918","69.4818","3756","0","W","993809533"
"13587","CNN","СНН","Kannur International Airport","CNN",,,,"0","0","36945","0","W","805245624"
"13584","ZMS",,"Santa Maria Novella Airport","FLR","ИТ","IT","+02:00","43.7761","11.2481","1116","0",NULL,NULL
"13583","XNB","XNB","Dubai Bus Station","DXB",,"AE","+04:00","0","0","763","0",NULL,NULL
"13581","FEG",,"Fergana","FEG",,"UZ",,"40.3583628","71.7510007489508","464","0","R","12686587"
"13580","PWE","ПЕВ","Pevek Airport","PWE","РФ","RU","+12:00","69.47","170.3548","288935","0","W","75208040"
"13579","VKV","ВСЬ","Vaskovo Airport","ARH","РФ","RU","+03:00","64.44200384999999","40.42722758410712","46","0","W","75208208"
"13576","АДЕ","АДЕ","Rogachyovo Air Base",,"РФ","RU",,"71.61793739999999","52.486033299672286",NULL,"0","W","135875732"
"13567","КОШ","КОШ","Kosh-Agach Airport",,"РФ","RU",,"49.94620795","88.63120967304232","21504","0","W","75208045"
"13566","LBD","LBD","Khujand Airport","LBD","ТД","TJ","+05:00","40.2184603","69.7000307877","3761","0","W","229290072"
"13563","BQG","БГР","Bogorodskoye Airport",,"РФ","RU","+11:00","52.3825564","140.45002737813","511","0","W","118443155"
"13560","RMZ","РМО","Tobolsk Remezov Airport","TOX","РФ","RU","+05:00","58.059383","68.345092386677","123","0","W","817435192"
"13558","UBN",,"Chinggis Khaan International Airport","ULN",,"MN","+08:00","47.64488545","106.8234152126","733","0","W","768383714"
"13555","МЗН","МЗН","Mezen Airport","МЗН","РФ","RU","Europe/Kirov","65.8784347","44.216791657494156","56973","0","W","75208173"
"13552","KPW","КПМ","Keperveyem Airport","KPW",,"RU","Asia/Anadyr","67.8471745","166.13714452956","288820","0","W","60757927"
"13549","TMJ",,"«Termez» International Airport","TMJ",,"UZ",,"37.2857661","67.311659274268","1090","0","R","7233105"
"13547","OVS","СОЙ","Sovetsky Airport","OVS","РФ","RU","+05:00","61.32451615","63.607531912506","21574","0","R","3744905"
"13546","МАМ","МАМ","Mama Airport","МАМ","РФ","RU","+08:00","58.313763","112.890862","55065","0","N","302371684"
"13543","TLK","TLK","Talakan Airport","TLK","РФ","RU","+09:00","59.88190795","111.04221900159","54659","0","R","7032061"
"13533","HSA","HSA","Hazrat Sultan International Airport","HSA","КЗ","KZ","+05:00","43.313356","68.549236190817","1912","0","W","880808359"
"13532","ЗЕЯ","ЗЕЯ","Zeya airport","ЗЕЯ","РФ","RU","+08:00","53.69017","127.0869","689","0","N","720070544"
"13530","НЫВ","НЫВ","Novy Vasyugan Aerodrome","НЫВ","РФ","RU","+07:00","58.585473","76.502719","54847","0","W","384583077"
"13527","CEE","CEE","Cherepovets International Airport","CEE","РФ","RU","+03:00","59.27783665","38.020653543264","137","0","W","46427467"
"13524","VKT","ВКТ","Vorkuta Airport","VKT","РФ","RU","+03:00","67.48830205","64.002876684667","277","0","W","75208150"
"13521","NYM","НДМ","Nadym Airport","NYM","РФ","RU","+05:00","65.4843896","72.694572273733","414","0","W","75208110"
"13518","DEE","ЮЖК","Airport Mendeleev","DEE","РФ","RU",,"43.96078735","145.68322518049","288732","0","W","75208014"
"13512","PYJ","ПЛЯ","Polyarny Airport","PYJ","РФ","RU",,"66.40058075","112.03287408277","21491","0","W","75208112"
"13506","VEO","СЕН","Severo-Eniseysk Airport","VEO","РФ","RU","+07:00","60.37327905","93.01349063142125","606","0","W","352814663"
"13503","OSS","ОШШ","Osh International Airport","OSS","КГ","KG","+06:00","40.60815205","72.79365034037","3769","0","R","13349038"
"13501","KSZ","КТС","Kotlas Airport","KSZ","РФ","RU","+03:00","61.23754025","46.702815997257","480","0","W","75208182"
"13498","ODO","БДБ","Bodaybo Airport","ODO","РФ","RU","+08:00","57.8655439","114.23981379627","499","0","W","75207986"
"13495","EYK","БЛР","Аэропорт Белоярский","EYK","РФ","RU","+05:00","63.68877075","66.697968935474","770","0","R","8906189"
"13492","IKU","IKU","«Tamchy Issyk-Kul»  International Airport","IKU","КГ","KG","+06:00","42.58600115","76.707320708465","288703","0","W","321280860"
"13486","ITU","ККУ","Yasny Airport","ITU","РФ","RU","+11:00","45.25471985","147.96086383248","54666","0","W","151578860"
"13476","NZG","НЖГ","Nizhneangarsk airport","НЖГ","РФ","RU","+08:00","55.801779","109.596921","288915","0",NULL,NULL
"13473","MJZ","МИР","Mirny Airport","MJZ","РФ","RU","+09:00","62.53395055","114.03472822081","477","0","W","75208109"
"13467","NNM","ННР","Naryan-Mar Airport","NNM","РФ","RU","+03:00","67.6366017","53.088479998004","503","0","W","75208066"
"13464","GVN","СОГ","Sovetskaya Gavan","GVN","РФ","RU","+10:00","48.9249059","140.0297395","524","0","N","1042089961"
"13461","KYZ","КЫЫ","Kyzyl Airport","KYZ","РФ","RU","+07:00","51.66921325","94.393440952146","264","0","R","10325651"
"13458","UKX","УСК","Ust-Kut Airport","UKX","РФ","RU","+08:00","56.85889475","105.72207485831","327","0","W","75208111"
"13455","TKM","ТИО","Airport Taksimo","ТИО","РФ","RU","+08:00","56.36180745","114.93194755184","54739","0","W","611807361"
"13452","ЧАР","ЧАР","Chara Airport","ЧАР","РФ","RU","+09:00","56.9146307","118.27231134","288747","0",NULL,NULL
"13449","NER","НРГ","Chulman Neryungri Airport","NER","РФ","RU","+09:00","56.91109995","124.89788237181","271","0","W","75208210"
"13446","КАС","КАС","Kargasok Airport","КАС","РФ","RU","+07:00","59.0604848","80.82089543366718","629","0","W","514654274"
"13443","OHO","ОХТ","Okhotsk Airport","OHO","РФ","RU","+10:00","59.41464295","143.06106257564","60458","0","W","75208047"
"13440","MCX","МХЛ","Makhachkala Uytash Airport","MCX","РФ","RU","+03:00","42.8166319","47.6556723646","437","0","W","75208165"
"13437","RGK","ГОР","Gorno Altaisk","RGK","РФ","RU","+07:00","51.96653575","85.835358611151","263","0","R","4680249"
"13434","GRV","ГРН","Grozny Severny Airport","GRV","РФ","RU","+03:00","43.3871739","45.696418179428","692","0","R","6012583"
"13420","BVJ","БОВ","Bovanenkovo airport","BVJ","РФ","RU","+05:00","70.3115293","68.348631573833","288741","0","W","159491050"
"13360","KVO","KVO","Morava Airport","KVO","РС","RS","+01:00","43.818194","20.587490718639","9606","0","W","512549825"
"13357","TWC","TWC","Tumxuk Tangwangcheng Airport",,,,,"39.88572145","79.231543747439",NULL,"0","W","851596366"
"13351","PKX","PKX","Beijing Daxing International Airport","BJS","ЦН","CN","+09:00","39.49734235","116.41231485295","950","0","R","9260711"
"13348","МГД","МГД","MAGADAN 13",,,,,"-13.2607484","-64.0607643",NULL,"0","N","1042076450"
"13236","БЛС","БЛС","BAJKALSK",,,,,"0","0",NULL,"0",NULL,NULL
"13163","NUM","NUM","NEOM BAY",,,,,"27.92758955","35.291433289722",NULL,"0","W","334181000"
"13160","GSV","ГСВ","Saratov, Gagarin Arpt","RTW","RU","RU","+04:00","51.7139603","46.167108564508","38","0","W","232772321"
"13159","ЧАУ","ЧАУ","CHAGDA UCHUR",,,,,"-8.28194365","-36.013216713315",NULL,"0","W","301653567"
"13156","TMF","TMF","THIMARAFUSHI",,,"MV",,"2.2124794","73.1524596",NULL,"0","N","4508136626"
"13153","KJT","KJT","Kertajati International Airport",,,"ID",,"-6.64858215","108.15537620434",NULL,"0","W","772977540"
"13150","YDD","YDD","YINGKOU",,,,,"0","0",NULL,"0",NULL,NULL
"13147","БВЗ","БВЗ","BEREZOVKA",,,"AU",,"-16.7278661","125.4389768",NULL,"0","N","1042093461"
"13144","МРЮ","МРЮ","MARKULESHTY INTERNATIONAL",,,"MU",,"-20.4325615","57.684949281776",NULL,"0","W","224372716"
"13141","DQM","DQM","INTERNATIONAL",,,"OM",,"19.50219325","57.64392817086",NULL,"0","W","958255374"
"13138","OLL","OLL","Ollombo Airport",,,"CG",,"-1.230283","15.90712633616",NULL,"0","W","998329722"
"13132","WMT","WMT","Zunyi Maotai Airport",,,"CN",,"27.95638265","106.43593156797",NULL,"0","W","484724981"
"13126","AIX","AIX","AIX LES BAINS BUS ST",,,,,"0","0",NULL,"0",NULL,NULL
"13123","CYY","CYY","SQ PAUL VIDAL BUS ST",,,,,"0","0",NULL,"0",NULL,NULL
"13120","RIV","RIV","March Air Reserve Base",,,"US",,"0","0",NULL,"0","W","126516433"
"13114","OLG","OLG","Solon Springs Municipal Airport",,,"US",,"46.31600955","-91.818925599103",NULL,"0","W","450138946"
"13111","HKR","HKR","MARA NORTH",,,,,"0","0",NULL,"0",NULL,NULL
"13108","OSJ","OSJ","OL SEKI",,,,,"0","0",NULL,"0",NULL,NULL
"13099","IZA","IZA","REG DA ZONA DA MATA",,,,,"0","0",NULL,"0",NULL,NULL
"13096","YIA","YIA","New Yogyakarta International Airport",,,"ID",,"-7.89983735","110.05119439548",NULL,"0","W","544170813"
"13090","SSX","SSX","SINGITA SAFARI LODGE",,,"ZA",,"-24.80130295","31.421828444834",NULL,"0","W","551971702"
"13084","DSS","DSS","Blaise Diagne International Airport","DSS",,"SN","+00:00","14.6655114","-17.073431165605","13447","0","W","321817547"
"13078","AAP","AAP","APT Pranoto International Airport",,,"ID",,"-0.37419035","117.25387923784",NULL,"0","W","674055639"
"13075","ETM","ETM","Ilan and Assaf Ramon Timna International Airport",,,"IL",,"29.72866805","35.010823781631",NULL,"0","W","664123394"
"13072","DIA","DIA","Doha International Airport","DOH",,"QA","+03:00","25.257550600000002","51.57199947270161","8966","0","W","1040912576"
"13069","ТРЛ","ТРЛ","TURA  MVL",,,"US",,"32.70921675","-96.268820032936",NULL,"0","W","386863375"
"13066","ПЛХ","ПЛХ","PLECHANOVO","TJM",,"RU","+05:00","57.1443752","65.4646072844323","16","0","R","13755386"
"13060","АНР","АНР","ANGARA",,,"BE",,"51.1881429","4.4634738611412",NULL,"0","W","9550802"
"13057","OSF","ОСФ","Ostafievo International Airport",,,"RU",,"55.51218435","37.506881819764","6","0","R","2740939"
"13054","GYG","МГН","Magan Airport",,,"RU",,"62.10831635","129.56226511821","39","0","W","973412619"
"12226","ERG","ЕГЧ","Erbogachen Airport","ERG","РФ","RU","+08:00","61.2758297","108.0280075979","56856","0","W","75208141"
"12193","МТГ","МТГ","Motygino airport","МТГ","РФ","RU","+07:00","58.182018","94.741177","553","0",NULL,NULL
"12157","TYD","ТЫД","Tynda Airport","TYD","РФ","RU","+09:00 ","55.2843738","124.77325658919","576","0","W","75207996"
"12155","ZIA","ЖУК","Zhukovsky International Airport","MOW","РФ","RU","+03:00","55.5527354","38.148660779904","6","0","R","9375998"
"12154","DHG","ДНГ","Dalnegorsk","DHG","RU","RU","+10:00","44.5581693","135.4908037","465","0","N","6887912249"
"12012","ТЕЙ","ТЕЙ","Terneyevsky Airport","ТЕЙ","РФ","RU","+10:00","45.082473","136.590576","57378","0",NULL,NULL
"11984","OLZ","ОЛК","Olyokminsk Airport","OLZ","РФ","RU","+09:00","60.4008072","120.47476771682","54799","0","W","153969705"
"11963","ZIX","ЖИГ","Zhigansk airport","ZIX","РФ","RU","+09:00","66.7960096","123.36246898653",NULL,"0","W","75208032"
"11962","SUK","СКЫ","Batagay Alyta","SUK","РФ","RU","+09:00","67.7925595","130.38941326304","289134","0","W","473097714"
"11957","VHV","ВХВ","Verkhnevilyuysk","VHV","РФ","RU","+09:00","63.4589807","120.2692577103","56452","0","R","6938048"
"11955","SYS","СЫХ","Saskylakh Airport","SYS","РФ","RU","+09:00","71.9267255","114.08037344921","10826","0","W","88627667"
"11954","ССМ","ССМ","Susuman Airport","ССМ","РФ","RU","+11:00","62.763254","148.143478","54635","0",NULL,NULL
"11949","NLI","НЛК","Nikolayevsk-na-Amure Airport","NLI","РФ","RU","+10:00","53.15283065","140.65882198728","708","0","R","5472733"
"11941","BQJ","БТГ","Batagay Airport","BQJ","РФ","RU","+10:00","67.6462041","134.70245676316",NULL,"0","W","75208060"
"11939","KVK","АПХ","Kirovsk–Apatity Airport","KVK","РФ","RU","+03:00","67.4634243","33.587646830705","992","0","W","860976837"
"11933","BGN","БЯГ","Belaya Gora","BGN","РФ","RU","+11:00","68.55622175","146.23026735353",NULL,"0","W","75208098"
"11929","ZKP","ЗНК","Zyryanka Airport","ZKP","РФ","RU","+11:00","65.7304038","150.6976842","54667","0","N","4326877639"
"11927","SUY","СУН","Suntar Airport","SUY","РФ","RU","+09:00","62.1854087","117.63580548479",NULL,"0","W","161963682"
"11926","NYR","НЮР","Nyurba Airport","NYR","РФ","RU","+09:00","63.2977167","118.35236286257","56215","0","W","183550829"
"11924","ZZZ",,"Aarhus Sea Airport","AAR",,"DK","+02:00","56.151811949999995","10.250511600000019","6805","0","W","487646319"
"11923","ZZV",,"Zanesville Municipal Airport","ZZV",,"US","+00:00","39.9436818","-81.892381301496",NULL,"0","W","465528798"
"11910","ZYL",,"MAG Osmani International Airport","ZYL",,"BD","+06:00","24.9638508","91.861223996055","19100","0","W","519013184"
"11909","ZYI",,"Zunyi Airport","ZYI",,"CN","+08:00","27.81302225","107.24644311556","3477","0","W","333982923"
"11903","ZXT",,"Baku, Zabrat Arpt","BAK",,"AZ","+04:00","40.4952264","49.974560679541","574","0","W","164470458"
"11887","ZVK",,"Savannakhet Airport","ZVK",,"LA","+07:00","16.556469","104.76031944401","7447","0","W","36328556"
"11883","ZUM",,"Churchhill Falls, Churchhill Falls Arpt","ZUM",,"CA","-04:00","53.56291555","-64.106182640109",NULL,"0","W","44744787"
"11878","ZTH",,"Zakinthos, Zakinthos Arpt","ZTH",,"GR","+03:00","37.7508466","20.885394109126","17814","0","W","299644678"
"11876","ZTB",,"Tête-à-la-Baleine Airport","ZTB",,"CA","-04:00","50.67394625","-59.383199954711",NULL,"0","W","668163850"
"11874","ZSW",,"Prince Rupert, Seal Cove Arpt","YPR",,"CA","-08:00","54.3312433","-130.2819534","7005","0","N","1042031794"
"11871","ZSJ",,"Sandy Lake, Sandy Lake Arpt","ZSJ",,"CA","-06:00","53.06402525","-93.344615167427",NULL,"0","W","374934867"
"11869","ZSF",,"Springfield, Pringfield Ma Rr","SFY",,"US",,"0","0",NULL,"0",NULL,NULL
"11868","ZSE",,"St Pierre De La Reunion, St Pierre Dela Reunion Arpt","ZSE",,"RE","+04:00","0","0",NULL,"0",NULL,NULL
"11866","ZSA",,"San Salvador Bahamas Airport","ZSA",,"BS","-05:00","24.06408745","-74.531066302619",NULL,"0","W","490593147"
"11853","ZQW",,"Zweibruecken Airport","ZQW",,"DE","+01:00","49.209211","7.3975614598694",NULL,"0","W","43858812"
"11852","ZQS",,"Queen Charlotte Island, Queen Charlotte Island Arpt","ZQS",,"CA",,"53.25","-132.0670013",NULL,"0","N","1042023657"
"11851","ZQN",,"Queenstown, Frankton Airport","ZQN",,"NZ","+12:00","-45.01929995","168.74343994415",NULL,"0","W","175977600"
"11850","ZQF",,"Trier, Trier Arpt","ZQF",,"DE","+02:00","0","0","2725","0",NULL,NULL
"11847","ZPC",,"Pucón Airport","ZPC",,"CL","-04:00","-39.2916673","-71.917587924134","9844","0","W","204283284"
"11846","ZOX",,"Oberammergau, Oberammergau Airport","ZOX",,"DE","+02:00","0","0","18026","0",NULL,NULL
"11845","ZOS",,"Canal Bajo Carlos Hott Siebert Aerodrome","ZOS",,"CL","-04:00","-40.60969685","-73.061263315545","11563","0","W","145415196"
"11844","ZNZ",,"Zanzibar, Kisauni Arpt","ZNZ",,"TZ","+03:00","-6.22663005","39.224906724187","9730","0","W","135702614"
"11843","ZNE",,"Newman Airport","ZNE",,"AU","+08:00","-23.4178009","119.8030015",NULL,"0","N","1042096998"
"11842","ZNA",,"Nanaimo, Harbour Seaplane Base","YCD",,"CA","-07:00","49.1698302","-123.9351766","6988","0","N","1042023477"
"11838","ZMJ",,"Naples, Mergellina Harbour","NAP",,"IT","+02:00","0","0","4939","0",NULL,NULL
"11836","ZMF",,"Naples, Beverello Harbour","NAP",,"IT","+02:00","0","0","4939","0",NULL,NULL
"11831","ZLT",,"La Tabatière Airport","ZLT",,"CA","-04:00","50.83005065","-58.97623897021",NULL,"0","W","397184039"
"11827","ZLO",,"Playa de Oro International Airport","ZLO",,"MX","-05:00","19.1447539","-104.55803073181","7987","0","W","185915681"
"11822","ZKG",,"Kégashka Airport","ZKG",,"CA","-04:00","50.19551115","-61.267214060519",NULL,"0","W","473226200"
"11819","ZJN",,"Swan River, Swan River Municipal Arpt","ZJN",,"CA","-06:00","52.1162532","-101.2352046","16435","0","N","4658965154"
"11815","ZIH",,"Ixtapa-Zihuatanejo International Airport","ZIH",,"MX","-06:00","17.6036076","-101.46199568977",NULL,"0","W","683044798"
"11814","ZIG",,"Ziguinchor, Ziguinchor Arpt","ZIG",,"SN","+00:00","12.5565053","-16.279102909794","9581","0","R","5568071"
"11811","ZHY",,"Zhongwei Shapotou Airport","ZHY",,"CN","+08:00","37.5710553","105.15233253938",NULL,"0","W","359372444"
"11806","ZHA",,"Zhanjiang Airport","ZHA",,"CN","+08:00","21.48478265","110.58802553077","3491","0","W","794278540"
"11805","ZGS",,"Gethsemanie, Gethsemanie Arpt","ZGS",,"CA",,"50.25885785","-60.675719380857",NULL,"0","W","473226204"
"11802","ZGC",,"Lanzhou, Zhongchuan Airport","LHW",,"CN","+08:00","0","0","3591","0",NULL,NULL
"11799","ZFQ",,"Bordeaux, Gare De Bordeaux","BOD",,"FR","+02:00","0","0","2492","0",NULL,NULL
"11798","ZFJ",,"Rennes, Gare De Rennes","RNS",,"FR","+01:00","0","0","2257","0",NULL,NULL
"11796","ZER",,"Zero, Zero Airport","ZER",,"IN",,"27.5892118","93.82873589012",NULL,"0","W","315155223"
"11794","ZEC",,"Secunda, Secunda Arpt","ZEC",,"ZA","+02:00","-26.5221376","29.171137431831","8042","0","W","163005898"
"11787","ZCU",,"She Kou, She Kou Ferry","ZCU",,"CN",,"0","0",NULL,"0",NULL,NULL
"11786","ZCO",,"La Araucanía Airport","ZCO",,"CL","-04:00","-38.92516695","-72.650817413262","9829","0","W","295519613"
"11785","ZCL",,"General Leobardo C. Ruiz International Airport","ZCL",,"MX","-05:00","22.8954945","-102.68638719688","7952","0","W","223361157"
"11783","ZBZ",,"Xin Hui, Xin Hui Ferry Arpt","ZBZ",,"CN",,"0","0",NULL,"0",NULL,NULL
"11782","ZBW",,"Atibaia, Atibaia Arpt","ZBW",,"BR",,"0","0",NULL,"0",NULL,NULL
"11781","ZBV",,"Vail, Beaver Creek Van Service","EGE",,"US",,"0","0",NULL,"0",NULL,NULL
"11778","ZBM",,"Bromont, Bromont Regional Arpt","ZBM",,"CA","-05:00","45.2894744","-72.743561013611",NULL,"0","W","305789584"
"11777","ZBL",,"Biloela (Thangool) Airport","ZBL",,"AU",,"-24.4946875","150.5768617359",NULL,"0","W","302855537"
"11776","ZBG",,"Elblag, Elblag Airport","ZBG",,"PL",,"54.14082985","19.423197271639",NULL,"0","W","164200210"
"11775","ZBF",,"Bathurst, Bathurst Arpt","ZBF",,"CA","-04:00","47.63001475","-65.735762323953",NULL,"0","W","713824316"
"11774","ZBD",,"Jiang Men, Jiang Men Ferry","ZBD",,"CN",,"0","0",NULL,"0",NULL,NULL
"11771","ZAZ",,"Zaragoza Airport","ZAZ",,"ES","+02:00","41.6685642","-1.0465829587646","5951","0","W","174775672"
"11769","ZAO",,"Cahors, Laberandie Arpt","ZAO",,"FR","+02:00","44.35212705","1.4751781835807","2479","0","W","218995423"
"11768","ZAM",,"Zamboanga, Zamboanga Airport","ZAM",,"PH","+08:00","6.92226375","122.05983240894","5677","0","W","180265470"
"11767","ZAL",,"Pichoy Airport","ZAL",,"CL","-04:00","-39.649808","-73.084870605146","9827","0","W","751883216"
"11766","ZAG",,"Zagreb International Airport","ZAG",,"HR","+02:00","45.74027185","16.072316160981","7577","0","W","142163337"
"11765","ZAD",,"Zadar Airport","ZAD",,"HR","+02:00","44.10017495","15.357488127907","7578","0","W","372828272"
"11764","YZZ",,"Trail, Trail Arpt","YZZ",,"CA","-07:00","49.05369895","-117.60870356423","16454","0","W","614661546"
"11763","YZX",,"Greenwood, Greenwood Arpt","YZX",,"CA","-07:00","44.9844017","-64.9169006","16343","0","N","1042031714"
"11762","YZV",,"Sept-Îles Airport","YZV",,"CA","-05:00","50.2233009","-66.2656021",NULL,"0","N","1042031705"
"11761","YZT",,"Port Hardy, Port Hardy Municipal","YZT",,"CA","-08:00","50.68186165","-127.36977008238",NULL,"0","W","318146175"
"11760","YZS",,"Coral Harbour, Coral Harbour Arpt","YZS",,"CA","-04:00","64.197343","-83.357604620353","19122","0","W","417737529"
"11759","YZR",,"Sarnia, Sarnia Airport","YZR",,"CA","-04:00","42.9981744","-82.308820487165","7013","0","W","46226008"
"11758","YZP",,"Sandspit, Federal Airport","YZP",,"CA","-08:00","53.2532095","-131.81269984513",NULL,"0","W","753371713"
"11757","YZG",,"Salluit Airport","YZG",,"CA","-05:00","62.1792874","-75.66740714446",NULL,"0","W","795330061"
"11756","YZF",,"Yellowknife, Yellowknife Arpt","YZF",,"CA","-06:00","62.45738665","-114.44111467627","7031","0","R","12234509"
"11754","YYY",,"Mont Joli Airport","YYY",,"CA","-05:00","48.6086006","-68.2080994",NULL,"0","N","1042031686"
"11752","YYU",,"Kapuskasing, Japuskasing Municipal Arpt","YYU",,"CA","-05:00","49.40840675","-82.463983975308",NULL,"0","W","645107060"
"11751","YYT",,"St Johns, St Johns Arpt","YYT",,"CA","-02:30","47.6197383","-52.747919920275","7033","0","W","384444426"
"11750","YYR",,"Goose Bay, Municipal Goose Bay","YYR",,"CA","-04:00","53.31638065","-60.417120912625",NULL,"0","W","184176250"
"11749","YYQ",,"Churchill, Churchill Arpt","YYQ",,"CA","-06:00","58.7483682","-94.075267",NULL,"0","N","1042031681"
"11748","YYN",,"Swift Current, Swift Current Arpt","YYN",,"CA","-06:00","50.29086145","-107.6911192978",NULL,"0","W","230360143"
"11746","YYJ",,"Victoria, Victoria Intl Arpt","YYJ",,"CA","-05:00","48.6463019","-123.42170897401","4084","0","R","1374701"
"11744","YYH",,"Taloyoak, Taloyoak Arpt","YYH",,"CA","-07:00","69.54798305","-93.578168448046",NULL,"0","W","475772889"
"11743","YYG",,"Charlottetown, Charlottetown Municipal","YYG",,"CA","-04:00","46.2906776","-63.129478293662",NULL,"0","W","377214479"
"11742","YYF",,"Penticton, Penticton Municipal Arpt","YYF",,"CA","-07:00","49.46486925","-119.6025256071","6998","0","W","933682673"
"11741","YYE",,"Fort Nelson, Ft Nelson Municipal Arpt","YYE",,"CA","-07:00","58.83663445","-122.59140459443","16447","0","W","532565033"
"11740","YYD",,"Smithers, Smithers Municipal","YYD",,"CA","-08:00","54.82451285","-127.18542810246",NULL,"0","W","28712418"
"11739","YYC",,"Calgary, Calgary Intl Arpt","YYC",,"CA","-07:00","51.120751","-114.01057234296","6955","0","R","4767874"
"11738","YYB",,"North Bay, North Bay Municipal","YYB",,"CA","-04:00","46.3639218","-79.416754155321","6992","0","W","568696103"
"11737","YXZ",,"Wawa, Municipal Wawa","YXZ",,"CA","-04:00","47.965578","-84.787402703815","16445","0","W","71761327"
"11736","YXY",,"Whitehorse, Whitehorse Arpt","YXY",,"CA","-07:00","60.70929625","-135.06824981359","7027","0","W","229204525"
"11735","YXX",,"Abbotsford, Abbotsford Arpt","YXX",,"CA","-07:00","49.02686565","-122.37081068687","6943","0","W","929827772"
"11734","YXU",,"London, London Municipal","YXU",,"CA","-04:00","43.03236375","-81.148770137808","6977","0","W","46225505"
"11733","YXT",,"Terrace, Terrace Municipal Arpt","YXT",,"CA","-08:00","54.4672709","-128.57478806222","16347","0","W","29027122"
"11732","YXS",,"Prince George, Prince George Municipal","YXS",,"CA","-07:00","53.88330435","-122.67442382203","7004","0","W","929819540"
"11731","YXP",,"Pangnirtung, Pangnirtung Arpt","YXP",,"CA","-05:00","66.1449148","-65.713241794943",NULL,"0","W","422205377"
"11730","YXN",,"Whale Cove, Whale Cove Arpt","YXN",,"CA","-06:00","62.2416682","-92.60009968114",NULL,"0","W","473548455"
"11729","YXL",,"Sioux Lookout, Sioux Lookout Arpt","YXL",,"CA","-06:00","50.1138992","-91.9052963",NULL,"0","N","1042031587"
"11728","YXK",,"Rimouski, Rimouski Municipal Arpt","YXK",,"CA","-03:00","48.47780195","-68.497685371404","7036","0","W","345624835"
"11727","YXJ",,"Ft St John, Ft St John Municipal Arpt","YXJ",,"CA","-07:00","56.2404316","-120.73587153404",NULL,"0","W","28986669"
"11726","YXH",,"Medicine Hat, Medicine Hat Airport","YXH",,"CA","-07:00","50.0185704","-110.72105082681",NULL,"0","W","232926067"
"11725","YXE",,"Saskatoon, Saskatoon Municipal","YXE",,"CA","-06:00","52.172372","-106.69161089221","7014","0","W","228733260"
"11724","YXD",,"Edmonton, Edmonton Municipal Arpt","YEA",,"CA","-06:00","0","0","6967","0",NULL,NULL
"11723","YXC",,"Cranbrook, Cranbrook Municipal","YXC",,"CA","-07:00","49.61286085","-115.7839109886","16418","0","W","23032570"
"11722","YWS",,"Whistler, Whistler Arpt","YWS",,"CA","-07:00","50.1435918","-122.9487812","16383","0","N","456383924"
"11720","YWL",,"Williams Lake, Williams Lake Municipal","YWL",,"CA","-08:00","52.1831017","-122.054",NULL,"0","N","1042031544"
"11719","YWK",,"Wabush, Wabush Arpt","YWK",,"CA","-04:00","52.92290375","-66.86590757997",NULL,"0","W","44806344"
"11718","YWH",,"Victoria, Inner Harbor Sea Plane Arpt","YYJ",,"CA","-05:00","48.4253301","-123.3904221","4084","0","N","31657543"
"11716","YWB",,"Kangiqsujuaq (Wakeham Bay) Airport","YWB",,"CA","-05:00","61.5877768","-71.927275533464",NULL,"0","W","472786924"
"11715","YVZ",,"Deer Lake, Deer Lake Arpt","YVZ",,"CA","-06:00","52.65648255","-94.06298718086",NULL,"0","W","563679451"
"11714","YVQ",,"Norman Wells, Norman Wells Municipal Arpt","YVQ",,"CA","-07:00","65.2805699","-126.79806851473",NULL,"0","W","874163299"
"11713","YVP",,"Kuujjuaq Airport","YVP",,"CA","-05:00","58.0906856","-68.427393486495",NULL,"0","W","472806501"
"11712","YVO",,"Val-d'Or Airport","YVO",,"CA","-05:00","48.0537795","-77.7846334","288956","0","N","1042031534"
"11711","YVM",,"Qikiqtarjuaq, Qikiqtarjuaq Arpt","YVM",,"CA","-05:00","67.544547","-64.034997495989",NULL,"0","W","512888631"
"11710","YVG",,"Vermilion, Vermilion Arpt","YVG",,"CA","-07:00","53.3572817","-110.8266663",NULL,"0","N","1042031531"
"11709","YVE",,"Vernon, Vernon Municipal Arpt","YVE",,"CA","+00:00","50.2465422","-119.32845362575",NULL,"0","W","234951699"
"11708","YVB",,"Bonaventure, Municipal Bonaventure","YVB",,"CA","-03:00","48.07118955","-65.460218460148","16393","0","W","541636337"
"11707","YVA",,"Moroni, Iconi Arpt","YVA",,"KM","+03:00","-11.7108002","43.2439003","9036","0","N","1042037111"
"11706","YUY",,"Rouyn-Noranda Airport","YUY",,"CA","-05:00","48.2083786","-78.8323492",NULL,"0","N","1042031527"
"11705","YUX",,"Hall Beach, Hall Beach Arpt","YUX",,"CA","-05:00","68.7761002","-81.2435989",NULL,"0","N","1042031526"
"11704","YUM",,"Yuma International Airport","YUM",,"US","-07:00","32.64851395","-114.60772586874","4489","0","W","596258745"
"11703","YUD",,"Umiujaq Airport","YUD",,"CA","-05:00","56.5382204","-76.5191558",NULL,"0","N","1042031398"
"11702","YUB",,"Tuktoyaktuk, Tuktoyaktuk Airport","YUB",,"CA","-07:00","69.4309915","-133.01773322448",NULL,"0","W","513330776"
"11701","YTZ",,"Toronto, Toronto City Centre Airport","YTO",,"CA","-05:00","43.62805705","-79.3979911559",NULL,"0","R","85471"
"11700","YTS",,"Timmins, Timmins Municipal Arpt","YTS",,"CA","-05:00","48.57027225","-81.378621749942",NULL,"0","W","716893272"
"11699","YTR",,"Trenton, Trenton Municipal Arpt","YTR",,"CA","-05:00","44.11837255","-77.533967521511",NULL,"0","R","2132449"
"11698","YTQ",,"Tasiujaq Airport","YTQ",,"CA","-05:00","58.6660776","-69.957391519787",NULL,"0","W","472801083"
"11697","YTP",,"Tofino, Tofino Sea Plane Base","YAZ",,"CA","-07:00","49.1549143","-125.9095844","16431","0","N","1042023474"
"11696","YTM",,"Mont-Tremblant International Airport","YTM",,"CA","-05:00","46.4071076","-74.7793708",NULL,"0","N","1042031113"
"11695","YTL",,"Big Trout, Big Trout Arpt","YTL",,"CA","-06:00","53.81987275","-89.900359549751",NULL,"0","W","374947722"
"11694","YTJ",,"Terrace Bay, Terrace Bay Municipal Arpt","YTJ",,"CA",,"0","0",NULL,"0",NULL,NULL
"11693","YTH",,"Thompson, Thompson Arpt","YTH",,"CA","-06:00","55.80491505","-97.853448955125",NULL,"0","W","829420025"
"11692","YTF",,"Alma Airport","YTF",,"CA","-05:00","48.5098133","-71.6502761","10617","0","N","1042031518"
"11691","YTE",,"Cape Dorset, Cape Dorset Arpt","YTE",,"CA","-05:00","64.2301779","-76.524387617603",NULL,"0","W","421500754"
"11689","YTA",,"Pembroke, Pembroke And Area","YTA",,"CA","-05:00","45.863463","-77.252997337929",NULL,"0","W","343577495"
"11688","YST",,"St Theris Point, St Therese Pt Municipal","YST",,"CA","-06:00","53.8450405","-94.8522875",NULL,"0","N","1042031512"
"11687","YSP",,"Marathon, Marathon Municipal Arpt","YSP",,"CA","-05:00","48.75823135","-86.348185963628",NULL,"0","W","739805138"
"11686","YSO",,"Postville, Postville Arpt","YSO",,"CA","-04:00","54.90950015","-59.785849375847",NULL,"0","W","471879727"
"11685","YSN",,"Salmon Arm, Salmon Arm Municipal","YSN",,"CA","+00:00","50.6828003","-119.228996",NULL,"0","N","1042031747"
"11684","YSM",,"Ft Smith, Ft Smith Municipal Arpt","YSM",,"CA","-07:00","60.0192725","-111.9620047369",NULL,"0","R","12412306"
"11683","YSL",,"Saint-Léonard Aerodrome","YSL",,"CA","+00:00","47.1572744","-67.834748992013",NULL,"0","W","66793251"
"11682","YSK",,"Sanikiluaq, Sanikiluaq Arpt","YSK",,"CA","-05:00","56.53683365","-79.249337820959",NULL,"0","W","401697724"
"11681","YSJ",,"St John, St John Municipal","YSJ",,"CA","-03:00","45.31381415","-65.885979411491","7010","0","W","61678076"
"11679","YSC",,"Sherbrooke, Sherbrooke Airport","YSC",,"CA","-04:00","45.43881525","-71.690387527561","7016","0","W","382347638"
"11678","YSB",,"Sudbury, Sudbury Municipal Arpt","YSB",,"CA","-05:00","46.625","-80.7988968",NULL,"0","N","1042031499"
"11677","YRT",,"Rankin Inlet, Rankin Inlet Arpt","YRT",,"CA","-06:00","62.81005385","-92.112676537875",NULL,"0","W","237832318"
"11676","YRQ",,"Trois-Rivières Airport","YRQ",,"CA","-03:00","46.3567288","-72.678150176163","7021","0","W","72656712"
"11675","YRO",,"Ottawa, Rockcliffe St Arpt","YOW",,"CA","-04:00","45.4604889","-75.644122761963","6996","0","W","136325762"
"11674","YRL",,"Red Lake, Federal Red Lake","YRL",,"CA","-05:00","51.06810435","-93.787629927203","16434","0","W","234844145"
"11673","YRJ",,"Roberval Airport","YRJ",,"CA","-05:00","48.5200005","-72.2656021",NULL,"0","N","1042031491"
"11672","YRI",,"Riviere Du Loup, Riviere Du Loup Arpt","YRI",,"CA","-05:00","47.7609801","-69.5824059",NULL,"0","N","474886032"
"11671","YRG",,"Rigolet, Rigolet Arpt","YRG",,"CA","-04:00","54.17924465","-58.460392838139",NULL,"0","W","227646421"
"11670","YRF",,"Cartwright, Cartwright Arpt","YRF",,"CA","-04:00","53.6826849","-57.041764221961","19103","0","W","475049250"
"11669","YRB",,"Resolute, Resolute Arpt","YRB",,"CA","-06:00","74.7166791","-94.968588686291",NULL,"0","W","399126758"
"11668","YQZ",,"Quesnel, Quesnel Arpt","YQZ",,"CA","-08:00","53.0246193","-122.50736505872",NULL,"0","W","692305376"
"11667","YQY",,"Sydney, Sydney Airport","YQY",,"CA","-04:00","46.1601409","-60.046096588464",NULL,"0","W","223990112"
"11666","YQX",,"Gander, Gander International","YQX",,"CA","-03:30","48.9356343","-54.57370404302",NULL,"0","W","239321190"
"11665","YQW",,"North Battleford, North Battleford Arpt","YQW",,"CA","-06:00","52.768967","-108.25243233738",NULL,"0","W","239250603"
"11664","YQV",,"Yorkton, Yorkton Airport","YQV",,"CA","-06:00","51.2617706","-102.46281315971",NULL,"0","W","352335619"
"11663","YQU",,"Grande Prairie, Grande Prairie Arpt","YQU",,"CA","-07:00","55.1800502","-118.87829242533",NULL,"0","W","285327747"
"11662","YQT",,"Thunder Bay, Thunder Bay Arpt","YQT",,"CA","-05:00","48.37209765","-89.327258321694",NULL,"0","W","416178294"
"11661","YQS",,"St Thomas, Pembroke Area Municipal Arpt","YQS",,"CA","+00:00","42.77059525","-81.1087254",NULL,"0","W","147979432"
"11660","YQR",,"Regina, Regina Municipal","YQR",,"CA","-06:00","50.4309977","-104.66560618609","7007","0","W","60076669"
"11659","YQQ",,"Comox, Royal Canadian Air Force Station","YQQ",,"CA","-08:00","49.7066374","-124.9077184",NULL,"0","N","1042031479"
"11657","YQM",,"Moncton, Moncton Municipal","YQM",,"CA","-03:00","46.11647835","-64.675560693779","6985","0","W","123685240"
"11656","YQL",,"Lethbridge, Lethbridge Arpt","YQL",,"CA","-07:00","49.629112","-112.79092858608","6976","0","W","252809708"
"11655","YQK",,"Kenora, Kenora Arpt","YQK",,"CA","-06:00","49.7896669","-94.3622078",NULL,"0","N","1042031476"
"11654","YQI",,"Yarmouth, Municipal Yarmouth","YQI",,"CA","-04:00","43.8244588","-66.08582716371",NULL,"0","W","746412547"
"11653","YQH",,"Watson Lake, Watson Lake Arpt","YQH",,"CA","-08:00","60.11937525","-128.81683550691",NULL,"0","W","29096998"
"11652","YQG",,"Windsor, Windsor Intl Arpt","YQG",,"CA","-04:00","42.27541855","-82.945034555007","4574","0","W","23348851"
"11651","YQF",,"Calgary, Red Deer Arpt","YYC",,"CA","-07:00","52.18312545","-113.88907430112","6955","0","R","8450939"
"11650","YQD",,"The Pas, The Pas Municipal Arpt","YQD",,"CA","-06:00","53.9714219","-101.09608374656",NULL,"0","W","200492407"
"11649","YQC",,"Quaqtaq Airport","YQC",,"CA","-05:00","61.0470947","-69.618407340403",NULL,"0","W","431799404"
"11648","YQB",,"Québec City Jean Lesage International Airport","YQB",,"CA","-03:00","46.79217485","-71.385778210568","7034","0","W","464846018"
"11647","YQA",,"Muskoka, Muskoka Arpt","YQA",,"CA","-05:00","44.9754065","-79.306740353787",NULL,"0","W","430197882"
"11645","YPX",,"Puvirnituq Airport","YPX",,"CA","-05:00","60.0441788","-77.2820326",NULL,"0","N","1042031462"
"11644","YPW",,"Powell River, Westview Arpt","YPW",,"CA","-07:00","49.83348945","-124.49884784745","16479","0","W","752836765"
"11643","YPS",,"Port Hawkesbury, Port Hawkesbury Arpt","YPS",,"CA","+00:00","45.65680205","-61.367937113527",NULL,"0","W","243113802"
"11642","YPR",,"Prince Rupert, Digby Island Arpt","YPR",,"CA","-08:00","54.2849597","-130.44390122661","7005","0","W","345742437"
"11641","YPQ",,"Peterborough, Peterborough Arpt","YPQ",,"CA","-04:00","44.2294344","-78.3672073","6999","0","N","1860910040"
"11640","YPN",,"Port Menier Airport","YPN",,"CA","-05:00","49.83726715","-64.286695976482",NULL,"0","W","498858673"
"11639","YPM",,"St Pierre, Pikangikum Arpt","YPM",,"CA","-06:00","51.8196983","-93.9732971",NULL,"0","N","1042031455"
"11638","YPL",,"Pickle Lake, Pickle Lake Arpt","YPL",,"CA","-05:00","51.4482847","-90.213042850248",NULL,"0","W","374906850"
"11637","YPJ",,"Aupaluk Airport","YPJ",,"CA","-05:00","59.29674805","-69.599872314395",NULL,"0","W","502410396"
"11636","YPH",,"Inukjuak Airport","YPH",,"CA","-05:00","58.4690017","-78.0790586",NULL,"0","N","1042031452"
"11633","YPE",,"Peace River, Municipal Peace River","YPE",,"CA","-07:00","56.2258183","-117.44846958037",NULL,"0","W","28961493"
"11632","YPD",,"Parry Sound, Parry Sound Municipal Arpt","YPD",,"CA","-04:00","45.25985195","-79.830952830404","16464","0","W","357224365"
"11631","YPB",,"Port Alberni, Port Alberni Arpt","YPB",,"CA","-07:00","49.3211205","-124.93130439887","7002","0","W","318146168"
"11630","YPA",,"Prince Albert, Prince Albert Municipal Arpt","YPA",,"CA","-06:00","53.2166982","-105.675088","7003","0","N","1042031448"
"11629","YOT",,"Yotvata Runway","YOT",,"IL",,"29.8987599","35.0669918",NULL,"0","N","922250484"
"11628","YOS",,"Owen Sound, Billy Bishop Regional Arpt","YOS",,"CA","+00:00","44.5874818","-80.83685006561",NULL,"0","W","183392723"
"11627","YOP",,"Rainbow Lake, Rainbow Lake Arpt","YOP",,"CA","-07:00","58.4908903","-119.40651632509",NULL,"0","W","532585444"
"11626","YOO",,"Oshawa, Oshawa Municipal Arpt","YOO",,"CA","-04:00","0","0","6995","0",NULL,NULL
"11625","YOK",,"Yokohama, Yokohama Airport","YOK",,"JP",,"0","0",NULL,"0",NULL,NULL
"11624","YOJ",,"High Level, Footner Lake Arpt","YOJ",,"CA","-07:00","58.6204324","-117.16353",NULL,"0","N","676439311"
"11623","YOD",,"Cold Lake, Cold Lake Arpt","YOD",,"CA","-06:00","54.39554705","-110.26376575391","16461","0","W","199424474"
"11622","YNZ",,"Yancheng Nanyang International Airport","YNZ",,"CN","+08:00","33.42840935","120.20320242554","3511","0","W","153970106"
"11621","YNT",,"Yantai Penglai International Airport","YNT",,"CN","+09:00","37.66191315","120.98551185352","3507","0","W","395921771"
"11620","YNP",,"Natuashish Airport","YNP",,"CA",,"55.9133742","-61.181684100596",NULL,"0","W","471890652"
"11619","YNN",,"Yandicoogina, Yandi Arpt","YNN",,"AU",,"0","0",NULL,"0",NULL,NULL
"11618","YNJ",,"Yanji Chaoyangchuan International Airport","YNJ",,"CN","+10:00","42.8787858","129.44870489516","3681","0","W","145680588"
"11617","YNG",,"Youngstown–Warren Regional Airport","YNG",,"US","-05:00","41.26073745","-80.67497084511",NULL,"0","W","254341166"
"11616","YND",,"Gatineau Airport","YND",,"CA","-05:00","45.52149385","-75.560907041529",NULL,"0","R","12617926"
"11615","YNB",,"Prince Abdul Mohsin bin Abdulaziz International Airport","YNB",,"SA","+03:00","24.14803015","38.06267383659","13497","0","W","891425390"
"11614","YNA",,"Natashquan Airport","YNA",,"CA","-05:00","50.1898717","-61.787359333321",NULL,"0","W","266177940"
"11612","YMX",,"Montréal–Mirabel International Airport","YMQ",,"CA","+02:00","45.6808338","-74.070927214876","4804","0","R","14275400"
"11611","YMT",,"Chapais Airport","YMT",,"CA","-05:00","49.7697445","-74.529516320697",NULL,"0","W","190373640"
"11610","YMO",,"Moosonee, Moosonee Arpt","YMO",,"CA","-05:00","51.29122475","-80.610613687004",NULL,"0","W","392700494"
"11609","YMN",,"Makkovik, Makkovik Arpt","YMN",,"CA","-04:00","55.07704615","-59.188412048755",NULL,"0","W","471880644"
"11608","YMM",,"Fort Mcmurray, Ft Mcmurray Municipal Arpt","YMM",,"CA","-06:00","56.65179285","-111.22838956158","16412","0","W","417403465"
"11607","YMJ",,"Regina, Moose Jaw Arpt","YQR",,"CA","-06:00","50.33292575","-105.5577814157","7007","0","W","156158791"
"11605","YMH",,"Marys Harbour, Marys Harbour Arpt","YMH",,"CA","-03:30","52.3027992","-55.8471985",NULL,"0","N","1042031378"
"11604","YMG",,"Manitouwadge, Manitouwadge Municipal Arpt","YMG",,"CA","-05:00","49.0828647","-85.860720736348",NULL,"0","W","933300143"
"11603","YME",,"Russell-Burnett Airport","YME",,"CA","-03:00","48.85627245","-67.452325191698","16382","0","W","484014325"
"11602","YMB",,"Merritt, Merritt Arpt","YMB",,"CA","-07:00","50.1234999","-120.74300161975","16346","0","W","1007046965"
"11601","YLY",,"Langley, Langley Regional Arpt","YLY",,"CA",,"49.10085405","-122.62808976801",NULL,"0","R","3410158"
"11600","YLW",,"Kelowna, Kelowna International Airport","YLW",,"CA","-07:00","49.9567037","-119.37954941396","6973","0","W","388343990"
"11598","YLL",,"Lloydminster, Lloydminster Arpt","YLL",,"CA","-06:00","53.31182105","-110.0726685776","16411","0","W","167994266"
"11597","YLJ",,"Meadow Lake, Meadow Lake Arpt","YLJ",,"CA","-06:00","54.12528515","-108.51986775998",NULL,"0","W","393530824"
"11596","YLI",,"Ylivieska Airfield","YLI",,"FI","+03:00","64.054201","24.7213378","2552","0","N","4462141816"
"11594","YLC",,"Kimmirut Lake Harbour, Kimmirut Lake Harbour Arpt","YLC",,"CA","-05:00","62.84737215","-69.875354818928",NULL,"0","W","507841707"
"11593","YKZ",,"Toronto, Buttonville Arpt","YTO",,"CA","-05:00","43.86122555","-79.369726716608",NULL,"0","W","14351459"
"11592","YKY",,"Saskatoon, Kindersley Arpt","YXE",,"CA","-06:00","51.513871","-109.17955634183","7014","0","W","588939401"
"11591","YKX",,"Kirkland, Kirkland Lake Municipal Arpt","YKX",,"CA","-05:00","48.2101067","-79.982596081005",NULL,"0","W","255885631"
"11590","YKU",,"Chisasibi Airport","YKU",,"CA","-05:00","53.8055604","-78.917565050939",NULL,"0","W","321516188"
"11589","YKQ",,"Waskaganish Airport","YKQ",,"CA","-05:00","51.4733523","-78.7545877",NULL,"0","N","1042031343"
"11588","YKN",,"Chan Gurney Municipal Airport","YKN",,"US","-05:00","42.91435385","-97.387331362394","4452","0","W","222487977"
"11587","YKM",,"Yakima Air Terminal Airport","YKM",,"US","-07:00","46.56681015","-120.53679819122","4690","0","W","331772107"
"11586","YKL",,"Schefferville Airport","YKL",,"CA","-05:00","54.80828395","-66.808720020959",NULL,"0","W","557130422"
"11585","YKG",,"Kangirsuk Airport","YKG",,"CA","-05:00","60.02742565","-69.999796275415",NULL,"0","W","727089991"
"11584","YKF",,"Kitchener, Kitchener Waterloo Regional","YKF",,"CA","-04:00","43.46011665","-80.387660818475","6974","0","W","67789626"
"11583","YKA",,"Kamloops, Davie Fulton Arpt","YKA",,"CA","-07:00","50.70379125","-120.44790594918","6972","0","W","525729656"
"11582","YJT",,"Stephenville, Stephenville Municipal","YJT",,"CA","-03:30","48.5430993","-58.559355183351",NULL,"0","W","798264933"
"11581","YJA",,"Jasper, Jasper Airport","YJA",,"CA","-06:00","52.9972169","-118.0612726","16368","0","N","1042031327"
"11580","YIW",,"Yiwu Airport","YIW",,"CN","+08:00","29.3422048","120.02868898782","10241","0","W","151683394"
"11579","YIP",,"Willow Run Airport","DTT",,"US","-04:00","42.23492795","-83.52605021747","4248","0","W","214234594"
"11578","YIO",,"Pond Inlet, Pond Inlet Arpt","YIO",,"CA","-05:00","72.6893248","-77.969828120225",NULL,"0","W","389041773"
"11577","YIN",,"Yining Airport","YIN",,"CN","+08:00","43.95627","81.328283377192",NULL,"0","W","167862517"
"11576","YIK",,"Ivujivik Airport","YIK",,"CA","-05:00","62.41866055","-77.92217684649",NULL,"0","W","507066584"
"11575","YIH",,"Yichang Sanxia Airport","YIH",,"CN","+08:00","30.55272465","111.48134693003","3505","0","R","13814855"
"11574","YIF",,"St-Augustin Airport","YIF",,"CA","-04:00","51.20991955","-58.657349631379",NULL,"0","W","256095460"
"11573","YIB",,"Atikokan, Atikokan Municipal Arpt","YIB",,"CA","-05:00","48.773681","-91.637821161869",NULL,"0","W","564426216"
"11572","YHY",,"Hay River, Hay River Municipal Arpt","YHY",,"CA","-07:00","60.83957225","-115.78207218687",NULL,"0","W","712566135"
"11571","YHU",,"Saint-Hubert Airport","YMQ",,"CA","+02:00","45.5214065","-73.411652662056","4804","0","W","45088176"
"11570","YHS",,"Sechelt, Sechelt Arpt","YHS",,"CA",,"49.4602145","-123.71702618874",NULL,"0","W","365887194"
"11569","YHR",,"Chevery Airport","YHR",,"CA","-04:00","50.4705983","-59.631994592562",NULL,"0","W","350106121"
"11568","YHO",,"Hopedale, Hopedale Arpt","YHO",,"CA","-04:00","55.4487663","-60.230736817836",NULL,"0","W","471556040"
"11566","YHM",,"Hamilton, Civic Airport","YHM",,"CA","-04:00","43.17084875","-79.927537215544","6971","0","W","23906262"
"11565","YHK",,"Gjoa Haven, Gjoa Haven Arpt","YHK",,"CA","-07:00","68.6368488","-95.85487461213",NULL,"0","W","505880750"
"11564","YHH",,"Campbell River, Harbor Airport","YBL",,"CA","-07:00","50.0464809","-125.2555537","6957","0","N","1042023484"
"11563","YHG",,"Charlottetown, Charlottetown Municipal Arpt","YHG",,"CA",,"52.765953","-56.111780391153",NULL,"0","W","475050120"
"11562","YHF",,"Hearst, Hearst Municipal Arpt","YHF",,"CA","-05:00","49.7141397","-83.68811012192",NULL,"0","W","453085604"
"11561","YHE",,"Hope, Hope Arpt","YHE",,"CA","+00:00","49.3690541","-121.4952154",NULL,"0","N","2843245284"
"11560","YHD",,"Dryden, Dryden Municipal","YHD",,"CA","-06:00","49.8305954","-92.7454401",NULL,"0","N","922242085"
"11558","YHA",,"Port Hope Simpson, Port Hope Simpson Arpt","YHA",,"CA","-03:30","52.52758035","-56.280771003169",NULL,"0","W","475057544"
"11556","YGW",,"Poste De La Baleine, Kuujjuaraapik Arpt","YGW",,"CA","-05:00","55.282033","-77.7631616",NULL,"0","N","1042031203"
"11555","YGV",,"Havre St Pierre Airport","YGV",,"CA","-05:00","50.2834939","-63.60387559404",NULL,"0","W","266231657"
"11554","YGT",,"Igloolik, Igloolik Arpt","YGT",,"CA","-05:00","69.3637618","-81.81482446871",NULL,"0","W","507916954"
"11553","YGR",,"Iles De Madeleine, House Harbour Arpt","YGR",,"CA","-05:00","47.4253863","-61.775724128632",NULL,"0","W","828304287"
"11552","YGQ",,"Geraldton, Geraldton Airport","YGQ",,"CA","-05:00","49.7783012","-86.9393997",NULL,"0","N","1042031177"
"11551","YGP",,"Gaspe, Gaspe Municipal Arpt","YGP",,"CA","-05:00","48.7752991","-64.4785995",NULL,"0","N","1042031171"
"11550","YGL",,"La Grande, La Grande Municipal Arpt","YGL",,"CA","-05:00","53.6256096","-77.701201938474",NULL,"0","W","473032969"
"11549","YGK",,"Kingston, Norman Rodgers Arpt","YGK",,"CA","-05:00","44.22465785","-76.597724521011",NULL,"0","W","19792312"
"11548","YGJ",,"Miho Airport","YGJ",,"JP","+09:00","35.4934846","133.24127273365","10609","0","W","57010868"
"11547","YFX",,"Fox Harbour, Fox Harbour Arpt","YFX",,"CA","-03:30","52.37309525","-55.673725928367",NULL,"0","W","475283800"
"11546","YFO",,"Flin Flon, Flin Flon Municipal Arpt","YFO",,"CA","-06:00","54.6781006","-101.681999",NULL,"0","N","1042031121"
"11545","YFC",,"Fredericton, Fredericton Municipal","YFC",,"CA","-03:00","45.87018365","-66.535102043657","6968","0","W","163300898"
"11544","YFB",,"Iqaluit Airport","YFB",,"CA","-05:00","63.7574019","-68.552383568096",NULL,"0","W","650829816"
"11542","YEV",,"Inuvik, Inuvik Mike Zubko Arpt","YEV",,"CA","-07:00","68.3056164","-133.490036",NULL,"0","N","343650051"
"11541","YET",,"Edson, Edson Arpt","YET",,"CA","-07:00","53.57913155","-116.46673278027",NULL,"0","W","404714374"
"11540","YER",,"Fort Severn, Fort Severn Arpt","YER",,"CA","-05:00","56.0191958","-87.677433955294",NULL,"0","W","374962583"
"11539","YEO",,"RNAS Yeovilton (HMS Heron)","YEO",,"GB","+00:00","51.00902325","-2.6439193761352",NULL,"0","W","120794516"
"11538","YEN",,"Estevan, Estevan Arpt","YEN",,"CA","-06:00","49.2124949","-102.96474765899","16415","0","W","746747598"
"11537","YEL",,"Elliot Lake, Elliot Lake Arpt","YEL",,"CA","-05:00","46.3513165","-82.558839949503",NULL,"0","W","685096411"
"11536","YEK",,"Arviat, Arviat Arpt","YEK",,"CA","-06:00","61.0940808","-94.071158022756",NULL,"0","W","364000525"
"11535","YEI",,"Bursa Yenişehir Airport","YEI",,"TR","+03:00","40.25584005","29.562091810821","6621","0","W","83334472"
"11534","PGU",,"Persian Gulf International Airport","PGU",,"IR",,"27.37876","52.739735697082",NULL,"0","W","472214000"
"11533","YED",,"Edmonton, Namao Field","YEA",,"CA","-06:00","0","0","6967","0",NULL,NULL
"11532","YEB",,"Bar River, Bar River Arpt","YEB",,"CA",,"0","0",NULL,"0",NULL,NULL
"11531","YDT",,"Vancouver, Boundary Bay Arpt","YVR",,"CA","-07:00","49.07362195","-123.00442235916","7022","0","W","474250270"
"11530","YDQ",,"Dawson Creek, Dawson Creek Arpt","YDQ",,"CA","-07:00","55.7414723","-120.18246225853",NULL,"0","W","745957171"
"11529","YDP",,"Nain, Nain Arpt","YDP",,"CA","-04:00","56.55111965","-61.68202142325",NULL,"0","W","471529477"
"11528","YDN",,"Dauphin, Dauphin Airport","YDN",,"CA","-05:00","0","0","16409","0",NULL,NULL
"11527","YDL",,"Dease Lake, Dease Lake Arpt","YDL",,"CA","-08:00","58.4200885","-130.0364383156","16438","0","W","28695786"
"11526","YDF",,"Deer Lake, Deer Lake Municipal","YDF",,"CA","-03:30","49.2108002","-57.3913994",NULL,"0","N","1042031002"
"11525","YDA",,"Dawson City, Dawson City Arpt","YDA",,"CA","-08:00","64.0440283","-139.1234987591",NULL,"0","W","244858643"
"11524","YCZ",,"Fairmont Hot Springs Airport","YCZ",,"CA","-07:00","50.3280976","-115.87288439006","16451","0","W","370257112"
"11523","YCY",,"Clyde River Arpt","YCY",,"CA","-05:00","70.4885223","-68.514349155933",NULL,"0","W","512657725"
"11522","YCW",,"Chilliwack, Chilliwack Arpt","YCW",,"CA","-08:00","49.1535458","-121.9414601",NULL,"0","N","274475239"
"11521","YCU",,"Yuncheng Guangong Airport","YCU",,"CN","+08:00","35.11686085","111.03353293308",NULL,"0","W","222283805"
"11520","YCS",,"Chesterfield Inlet, Chesterfield Inlet Arpt","YCS",,"CA","-06:00","63.3479211","-90.733769277441",NULL,"0","W","394158398"
"11519","YCO",,"Kugluktuk Coppermine, Kugluktuk Arpt","YCO",,"CA","-07:00","67.8169926","-115.14514387808",NULL,"0","W","420313040"
"11516","YCL",,"Charlo Airport","YCL",,"CA","-04:00","47.990799","-66.3302994",NULL,"0","N","1042030943"
"11515","YCK",,"Colville, Colville Municipal","YCK",,"CA","-07:00","0","0",NULL,"0",NULL,NULL
"11514","YCH",,"Miramichi, Miramichi Arpt","YCH",,"CA","-03:00","47.0078011","-65.4492035","6983","0","N","1042030935"
"11513","YCG",,"Castlegar, Ralph West Arpt","YCG",,"CA","-08:00","49.2957603","-117.63306450597",NULL,"0","W","240219625"
"11512","YCD",,"Nanaimo, Nanaimo Arpt","YCD",,"CA","-07:00","49.05294715","-123.87077170725","6988","0","W","316318293"
"11511","YCC",,"Cornwall, Cornwall Regional Arpt","YCC",,"CA","-04:00","45.0924275","-74.5633933","16401","0","N","1042030918"
"11510","YCB",,"Cambridge Bay, Cambridge Bay Arpt","YCB",,"CA","-07:00","69.1080144","-105.13765258864",NULL,"0","W","57376827"
"11507","YBX",,"Lourdes-de-Blanc-Sablon Airport","YBX",,"CA","-04:00","51.44196725","-57.186869516831",NULL,"0","W","209171419"
"11506","YBW",,"Bedwell Harbor, Bedwell Harbor Arpt","YBW",,"CA","-08:00","51.1074278","-114.37354306801",NULL,"0","W","218919612"
"11505","YBR",,"Brandon, Brandon Municipal Arpt","YBR",,"CA","-04:00","49.907492","-99.952297334171","3963","0","W","489656311"
"11504","YBP",,"Yibin Wuliangye Airport","YBP",,"CN","+08:00","28.8574776","104.52393725415","3506","0","W","262166594"
"11503","YBL",,"Campbell River, Campbell River Municipal","YBL",,"CA","-07:00","49.9540995","-125.27571806791","6957","0","W","318146172"
"11502","YBK",,"Baker Lake, Baker Lake Arpt","YBK",,"CA","-06:00","64.2995541","-96.078223060588",NULL,"0","W","358777649"
"11501","YBG",,"Bagotville, Bagotville Arpt","YBG",,"CA","-05:00","48.3314325","-70.994929465011",NULL,"0","W","361462205"
"11499","YBC",,"Baie Comeau, Baie Comeau Arpt","YBC",,"CA","-05:00","49.130885","-68.204418642774",NULL,"0","W","70198875"
"11498","YBB",,"Pelly Bay, Kugaaruk Arpt","YBB",,"CA","-07:00","68.5359937","-89.805142923053",NULL,"0","W","508508264"
"11497","YBA",,"Banff, Banff Arpt","YBA",,"CA","-07:00","51.2077959","-115.5410616","16360","0","N","1042030831"
"11496","YAZ",,"Tofino, Tofino Arpt","YAZ",,"CA","-07:00","49.08161545","-125.77932069108","16431","0","W","318146177"
"11495","YAY",,"St Anthony, St Anthony Arpt","YAY",,"CA","-03:30","51.3915711","-56.086514316176",NULL,"0","W","798586991"
"11494","YAW",,"Halifax, Canadian Force Base Shearwater","YHZ",,"CA","+01:00","0","0","5271","0",NULL,NULL
"11493","YAV",,"Miners Bay, Miners Bay Airport","YAV",,"CA","-06:00","48.8525197","-123.3014185",NULL,"0","N","1042023848"
"11492","YAT",,"Attawapiskat, Attawapiskat Arpt","YAT",,"CA","-05:00","52.9275937","-82.431112596936",NULL,"0","W","374573694"
"11491","YAP",,"Yap International Airport","YAP",,"FM","+10:00","9.49898575","138.08313625016",NULL,"0","W","747162575"
"11490","YAO",,"Yaounde, Yaounde Airport","YAO",,"CM","+01:00","3.8366051","11.521365012662","8947","0","W","223035940"
"11489","YAM",,"Sault Ste Marie, Sault Ste Marie Arpt","YAM",,"CA","-05:00","46.4832241","-84.50593834305",NULL,"0","W","834227091"
"11488","YAK",,"Yakutat Airport","YAK",,"US","-09:00","59.50081355","-139.64408083356",NULL,"0","W","255312682"
"11487","YAG",,"Fort Frances, Fort Frances Municipal","YAG",,"CA","-06:00","48.65356595","-93.44405183971",NULL,"0","W","559744642"
"11484","XZP",,"Pass, Off Line Point","XZP",,"CA",,"0","0",NULL,"0",NULL,NULL
"11478","XZF",,"Dammam, Dammam Port","DMM",,"SA","+03:00","0","0","13498","0",NULL,NULL
"11420","XUZ",,"Xuzhou Guanyin Airport","XUZ",,"CN","+08:00","34.0585055","117.55572772216","3512","0","W","320472307"
"11416","XTG",,"Thargomindah Airport","XTG",,"AU","+10:00","-27.9875037","143.8117374",NULL,"0","N","415142963"
"11413","XSP",,"Singapore, Seletar Airport","SIN",,"SG","+08:00","1.408495","103.8609948","9628","0","W","175010903"
"11411","XSD",,"Tonopah Test Range Airport","TPH",,"US",,"37.7984414","-116.77681279733",NULL,"0","W","283530192"
"11410","XSC",,"South Caicos Airport","XSC",,"TC","-04:00","21.51570485","-71.529834390042",NULL,"0","W","516673850"
"11409","XSA",,"Sinoe, Sinoe Afc","SNI",,"LR",,"0","0",NULL,"0",NULL,NULL
"11408","XRY",,"Jerez Airport","XRY",,"ES","+02:00","36.74393575","-6.0641687988208","5855","0","W","372224762"
"11399","XQU",,"Qualicum, Qualicum Arpt","XQU",,"CA",,"49.33753655","-124.39209943796",NULL,"0","W","148286173"
"11398","XQP",,"Quepos, Quepos Arpt","XQP",,"CR","-06:00","9.4441334","-84.129527863411","15884","0","W","695729198"
"11392","XPZ",,"St Tropez, Harbour arpt","LTT",,"FR","+02:00","0","0","12083","0",NULL,NULL
"11390","XPU",,"West Kuparuk, West Kuparuk Arpt","XPU",,"US",,"0","0",NULL,"0",NULL,NULL
"11373","XNT",,"Xingtai, Xingtai Airport","XNT",,"CN","+08:00","36.8884412","114.4268549923","3516","0","W","245974130"
"11371","XNN",,"Xining Caojiabao International Airport","XNN",,"CN","+08:00","36.5297578","102.03821999842","3515","0","W","155016316"
"11366","XNA",,"Northwest Arkansas National Airport","FYV",,"US","-06:00","36.27981","-94.302590165957",NULL,"0","W","224551508"
"11365","XMY",,"Yam Island Airport","XMY",,"AU","+10:00","-9.8996264","142.77555952831",NULL,"0","W","690755384"
"11364","XMN",,"Xiamen Gaoqi International Airport","XMN",,"CN","+08:00","24.54383005","118.13265145897","3525","0","W","598997467"
"11363","XMD",,"Madison Municipal Airport","XMD",,"US",,"44.0149015","-97.084527253823",NULL,"0","W","268662926"
"11358","XLS",,"St Louis, St Louis Airport","XLS",,"SN","+00:00","16.050589","-16.459893985476",NULL,"0","R","5329746"
"11341","XKH",,"Xieng Khouang, Xieng Khouang Arpt","XKH",,"LA","+07:00","19.44587175","103.15524872652",NULL,"0","W","986134580"
"11321","XIL",,"Xilinhot Airport","XIL",,"CN","+08:00","43.9138848","115.9595943794",NULL,"0","W","250357217"
"11316","XIC",,"Xichang Qingshan Airport","XIC",,"CN","+07:00","27.98876455","102.18454801698","3518","0","W","434354746"
"11302","XGR",,"Kangiqsualujjuaq (Georges River) Airport","XGR",,"CA","-05:00","58.7118495","-65.993423003184",NULL,"0","W","472812599"
"11294","XGB",,"Paris, Gare Montparnasse Arpt","PAR",,"FR","+02:00","0","0","500","0",NULL,NULL
"11291","XFW",,"Hamburg Finkenwerder Airport","HAM",,"DE","+02:00","53.5355617","9.8321052763659","615","0","R","10319016"
"11283","XFN",,"Xiangyang Airport","XFN",,"CN","+08:00","32.15136105","112.28950859293","3523","0","W","620906592"
"11239","XCR",,"Paris, Vatry Arpt","PAR",,"FR","+02:00","48.77629805","4.1876937124929","500","0","W","633154752"
"11238","XCO",,"Colac Airport","XCO",,"AU",,"-38.2873547","143.6798554",NULL,"0","N","1042097150"
"11237","XCM",,"Chatham, Chatham Airport","XCM",,"CA",,"42.3114714","-82.0759452",NULL,"0","N","477407759"
"11235","XCH",,"Christmas Island, Christmas Island Arpt","XCH",,"CX","+07:00","0","0",NULL,"0",NULL,NULL
"11234","XBW",,"Killineq, Killineq Arpt","XBW",,"CA",,"0","0",NULL,"0",NULL,NULL
"11233","XBR",,"Brockville, Brockville Arpt","XBR",,"CA","-04:00","44.63767745","-75.751067429075","6951","0","W","368691504"
"11229","XAP",,"Chapeco Municipal Airport","XAP",,"BR","-03:00","-27.1342038","-52.65686598513",NULL,"0","W","168325735"
"11228","XAL",,"Alamos, Alamos Arpt","XAL",,"MX","-07:00","27.0410256","-108.95125817382","14928","0","W","179330804"
"11226","WZY",,"Nassau, Seaplane Base Arpt","NAS",,"BS","-04:00","0","0","8220","0",NULL,NULL
"11225","WYS",,"Yellowstone Airport","WYS",,"US","-07:00","44.6889409","-111.11688394311",NULL,"0","W","226754718"
"11224","WYN",,"Wyndham Airport","WYN",,"AU",,"-15.50998395","128.15216975872",NULL,"0","W","171331485"
"11223","WYB",,"Yes Bay Lodge Seaplane Base","WYB",,"US",,"55.9151442","-131.7979253",NULL,"0","N","369145247"
"11222","WYA",,"Whyalla Airport","WYA",,"AU","+09:30","-33.05706865","137.50974861153","7459","0","W","446013162"
"11221","WXN",,"Wanzhou Wuqiao Airport","WXN",,"CN","+08:00","30.8013886","108.43117732035",NULL,"0","W","164854496"
"11220","WXF",,"MDP Wethersfield","WXF",,"GB",,"51.9731574","0.50929526966648",NULL,"0","W","470152955"
"11219","WWR",,"West Woodward Airport","WWR",,"US","+00:00","36.43608455","-99.526129825819",NULL,"0","W","160803905"
"11218","WWP",,"North Whale Seaplane Base","WWP",,"US",,"56.1150072","-133.1231623",NULL,"0","N","369144603"
"11217","WWK",,"Wewak, Boram Arpt","WWK",,"PG","+10:00","-3.58317905","143.66715297255",NULL,"0","W","874778266"
"11216","WWD",,"Cape May County Airport","WWD",,"US","-05:00","39.0080873","-74.9080999",NULL,"0","N","368396428"
"11215","WWA",,"Wasilla Airport","WWA",,"US","+00:00","61.5706849","-149.54527548826",NULL,"0","W","638419568"
"11214","WVN",,"Wilhelmshaven, Wilhelmshaven Arpt","WVN",,"DE","+02:00","53.5000857","8.0509830452462","2645","0","W","152344477"
"11213","WVL",,"Waterville Robert LaFleur Airport","WVL",,"US","-04:00","44.53318825","-69.676632907524","4241","0","W","39751343"
"11212","WVI",,"Watsonville Municipal Airport","WVI",,"US","-08:00","36.9336564","-121.79168201413",NULL,"0","W","35263389"
"11211","WVB",,"Walvis Bay Airport","WVB",,"NA","+02:00","-22.9778893","14.648071164227","9264","0","W","88288343"
"11210","WUX",,"Sunan Shuofang International Airport","WUX",,"CN","+08:00","31.4984151","120.43008547638","3526","0","W","548182726"
"11209","WUU",,"Wau Airport","WUU",,"SS","+03:00","7.72599855","27.974170030215",NULL,"0","W","217947353"
"11208","WUS",,"Wuyishan Airport","WUS",,"CN","+08:00","27.7030169","117.99998067262","16194","0","W","254368935"
"11207","WUN",,"Wiluna Airport","WUN",,"AU","+08:00","-26.6342902","120.21775945659",NULL,"0","W","1055062846"
"11206","WUH",,"Wuhan Tianhe International Airport","WUH",,"CN","+08:00","30.77382425","114.21236810445","3529","0","W","233511368"
"11205","WTR",,"Whiteriver Airport","WTR",,"US",,"33.80927915","-109.98776418525",NULL,"0","W","587352045"
"11204","WSZ",,"Westport, Westport Airport","WSZ",,"NZ","+12:00","-41.7375946","171.5818187158","14468","0","W","176114640"
"11203","WSY",,"Whitsunday Airstrip","WSY",,"AU","+10:00","-20.2766778","148.75536708748","19582","0","W","250492477"
"11202","WSX",,"Westsound/Wsx Seaplane Base","ESD",,"US",,"48.6288403","-122.956962",NULL,"0","N","1042092643"
"11201","WST",,"Westerly State Airport","WST",,"US","-05:00","41.3488154","-71.803213301522",NULL,"0","W","141518051"
"11200","WSM",,"Wiseman Airport","WSM",,"US",,"67.4059294","-150.1190072",NULL,"0","N","369145206"
"11199","WSH",,"Brookhaven Airport","WSH",,"US","-04:00","40.8216179","-72.87182868758","4382","0","W","439119862"
"11198","WSG",,"Washington County Airport","WSG",,"US","-04:00","40.1361828","-80.2920066","4435","0","N","368989190"
"11197","WSB",,"Steamboat Bay Seaplane Base","WSB",,"US",,"55.532784","-133.6381476",NULL,"0","N","369144871"
"11196","WRY",,"Westray Airport","WRY",,"GB","+00:00","59.3508314","-2.9490450908152",NULL,"0","W","477498501"
"11195","WRO",,"Wroclaw, Strachowice","WRO",,"PL","+02:00","51.1051232","16.881073796979","5499","0","W","1043810021"
"11194","WRL",,"Worland Municipal Airport","WRL",,"US","-07:00","43.9613428","-107.95100166712",NULL,"0","W","284877891"
"11193","WRG",,"Wrangell Airport","WRG",,"US","-09:00","56.4839528","-132.36889739257",NULL,"0","W","628026860"
"11192","WRE",,"Whangarei, Whangarei Arpt","WRE",,"NZ","+12:00","-35.76978905","174.36121115755","9357","0","W","175970202"
"11190","WPO",,"North Fork Valley Airport","WPO",,"US",,"38.8317586","-107.6458713",NULL,"0","N","369166451"
"11189","WPM",,"Wipim, Wipim Airport","WPM",,"PG",,"-8.7882204","142.8820038",NULL,"0","N","1042054378"
"11188","WPA",,"Puerto Aisen, Puerto Aisen Arpt","WPA",,"CL","-03:00","-45.3992349","-72.672499046084","11640","0","W","169502611"
"11187","WOW",,"Willow Airport","WOW",,"US",,"61.75353","-150.0538596",NULL,"0","N","369145207"
"11186","WOL",,"Shellharbour Airport","WOL",,"AU","+10:00","-34.5595018","150.7882594808","7522","0","W","86610012"
"11185","WOD",,"Wood River, Wood River Arpt","WOD",,"US",,"0","0",NULL,"0",NULL,NULL
"11184","WNZ",,"Wenzhou Longwan International Airport","WNZ",,"CN","+08:00","27.9087893","120.84686367619","3530","0","R","9056579"
"11183","WNS",,"Nawabshah, Nawabshah Arpt","WNS",,"PK","+05:00","26.21551985","68.389233348461",NULL,"0","W","993871008"
"11182","WNR",,"Windorah Airport","WNR",,"AU","+10:00","-25.4069931","142.67334736969",NULL,"0","W","956615888"
"11181","WNP",,"Naga, Naga Arpt","WNP",,"PH","+08:00","13.5840197","123.26937392431","5704","0","W","167419869"
"11180","WMI",,"Warsaw-Modlin Airport","WAW",,"PL","+02:00","52.45088565","20.648988117621","660","0","W","168515978"
"11179","WMH",,"Ozark Regional Airport","WMH",,"US","+00:00","36.3691443","-92.469381",NULL,"0","N","368921192"
"11178","WMC",,"Franklin Field","WMC",,"US","+00:00","40.89614635","-117.80406618291",NULL,"0","W","998071209"
"11177","WLW",,"Willows-Glenn County Airport","WLW",,"US",,"39.51670045","-122.21736641086",NULL,"0","W","1063979849"
"11176","WLK",,"Selawik Airport","WLK",,"US","-09:00","66.6003169","-159.9946695",NULL,"0","N","369144939"
"11175","WLG",,"Wellington, Wellington Arpt","WLG",,"NZ","+12:00","-41.32691975","174.80770296345","9335","0","W","176131210"
"11174","WLD",,"Strother Field","WLD",,"US",,"37.1681101","-97.0372129",NULL,"0","N","368388436"
"11173","WLB",,"Labouchere Bay, Labouchere Bay Arpt","WLB",,"US",,"0","0",NULL,"0",NULL,NULL
"11172","WKL",,"Waikoloa, Waikoloa Arpt","WKL",,"US","-10:00","0","0",NULL,"0",NULL,NULL
"11171","WKJ",,"Wakkanai Airport","WKJ",,"JP","+11:00","45.4041592","141.80098808275","10196","0","W","57007955"
"11170","WKF",,"Waterkloof, Waterkloof Airport Fawk","PRY",,"ZA","+02:00","-25.82924","28.224882265505","8047","0","W","4262778"
"11169","WKA",,"Wanaka, Wanaka Arpt","WKA",,"NZ","+12:00","-44.7225422","169.24545089708","14489","0","W","176051887"
"11168","WJF",,"General William J. Fox Airfield","WJF",,"US","-08:00","34.7403865","-118.22117677108",NULL,"0","W","621816685"
"11167","WIL",,"Wilson Airport","NBO",,"KE","+03:00","-1.32439265","36.811168055593","7871","0","W","305663625"
"11165","WIC",,"Wick Airport","WIC",,"GB","+00:00","58.4586857","-3.0926005184536","16797","0","W","567193018"
"11164","WHP",,"Whiteman Airport","LAX",,"US","-07:00","34.26133975","-118.41439944181","4527","0","W","362084327"
"11163","WHL",,"Welshpool, Welshpool Arpt","WHL",,"AU",,"0","0",NULL,"0",NULL,NULL
"11162","WHK",,"Whakatane, Whakatane Arpt","WHK",,"NZ","+12:00","-37.92149575","176.91465659335","14521","0","W","175985088"
"11161","WHH",,"Boulder, Hiltons Har H","WBU",,"US","-06:00","0","0","4619","0",NULL,NULL
"11160","WHD",,"Hyder Seaplane Base","WHD",,"US",,"55.9041568","-130.01183",NULL,"0","N","369144296"
"11159","WGT",,"Wangaratta Airport","WGT",,"AU","+10:00","-36.41547785","146.30838435504","7480","0","W","311488559"
"11158","WGO",,"Winchester Regional Airport","WGO",,"US","-04:00","39.14336775","-78.143690871326","23840","0","W","211064927"
"11157","WGE",,"Walgett Airport","WGE",,"AU","+10:00","-30.0321528","148.12542342678",NULL,"0","W","373849071"
"11156","WGC",,"Warangal, Warangalairport","WGC",,"IN","+05:30","17.9140552","79.6036086","7092","0","N","245642465"
"11155","WGA",,"Wagga Wagga  Airport","WGA",,"AU","+10:00","-35.16567315","147.46300325635","7481","0","W","217286666"
"11154","WFB",,"Ketchikan Harbor Seaplane Base","KTN",,"US",,"55.3457782","-131.664201",NULL,"0","N","1042013287"
"11153","WEX",,"Wexford, Castlebridge Arpt","WEX",,"IE","+01:00","0","0","16974","0",NULL,NULL
"11152","WEW",,"Wee Waa, Wee Waa Airport","WEW",,"AU",,"0","0",NULL,"0",NULL,NULL
"11151","WEL",,"Welkom, Welkom Arpt","WEL",,"ZA","+02:00","-27.9976561","26.667289570896",NULL,"0","W","814478138"
"11150","WEI",,"Weipa Airport","WEI",,"AU","+10:00","-12.67620945","141.92065699983",NULL,"0","W","337086404"
"11149","WEH",,"Weihai International Airport","WEH",,"CN","+09:00","37.1864922","122.22940860931","3531","0","W","107012117"
"11148","WEF",,"Weifang Nanyuan Airport","WEF",,"CN","+09:00","36.64718145","119.11501057347","3532","0","W","107008585"
"11147","WEA",,"Parker County Airport","WEA",,"US",,"32.7487959","-97.6816391",NULL,"0","N","369122667"
"11146","WDY",,"Kodiak, Kodiak Fss","ADQ",,"US",,"0","0",NULL,"0",NULL,NULL
"11145","WDG",,"Enid Woodring Municipal Airport","WDG",,"US","-06:00","36.37508555","-97.787433820457","4017","0","W","191036980"
"11144","WCR",,"Chandalar Lake Airport","WCR",,"US",,"67.5028851","-148.4909808",NULL,"0","N","369143899"
"11143","WBW",,"Wilkes-Barre Wyoming Valley Airport","AVP",,"US","-04:00","41.2970755","-75.854667368384","4438","0","W","116249048"
"11142","WBU",,"Boulder Municipal Airport","WBU",,"US","-06:00","40.0374058","-105.23111831576","4619","0","W","77513664"
"11141","WBM",,"Wapenamanda, Wapenamanda Airport","WBM",,"PG","+10:00","-5.6354236","143.89226039833",NULL,"0","W","980513061"
"11140","WBI",,"Boulder, Broker Inn","WBU",,"US","-06:00","0","0","4619","0",NULL,NULL
"11139","WAZ",,"Warwick Airport","WAZ",,"AU",,"-28.14902855","151.94322804581",NULL,"0","W","186295486"
"11138","WAY",,"Greene County Airport","WAY",,"US",,"39.90055975","-80.131120285487",NULL,"0","W","253691975"
"11137","WAW",,"Warsaw Chopin Airport","WAW",,"PL","+02:00","52.1630681","20.970804316016","660","0","W","237594029"
"11136","WAT",,"Waterford Airport","WAT",,"IE","+01:00","52.1868444","-7.0863509541152","7449","0","W","44015241"
"11135","WAL",,"Wallops Flight Facility Airport","WAL",,"US","-05:00","37.9417901","-75.4621455",NULL,"0","N","368947605"
"11134","WAG",,"Whanganui Airport","WAG",,"NZ","+12:00","-39.9636133","175.02471743075","9336","0","W","176133270"
"11133","WAE",,"Wadi al-Dawasir Domestic Airport","WAE",,"SA",,"20.5026726","45.200103077538",NULL,"0","W","252219707"
"11132","VYS",,"Illinois Valley Regional Airport","VYS",,"US","-06:00","41.3516589","-89.147640889364",NULL,"0","W","167353969"
"11131","VYD",,"Vryheid, Vryheid Arpt","VYD",,"ZA","+02:00","-27.78928405","30.79519172871","10721","0","W","47884549"
"11130","VXO",,"Vaxjo, Vaxjo Airport","VXO",,"SE","+01:00","56.92814175","14.729164204189",NULL,"0","R","10918866"
"11129","VXE",,"Cesaria Evora International Airport","VXE",,"CV","-01:00","16.8345053","-25.055170870135",NULL,"0","W","400058884"
"11128","VXC",,"Lichinga Airport","VXC",,"MZ","+02:00","-13.274676","35.258074917828",NULL,"0","W","1005531988"
"11127","VVO",,"Vladivostok International Airport","VVO",,"RU","+10:00","43.3925287","132.14617665194","22","0","W","75208108"
"11126","VVI",,"Viru Viru International Airport","SRZ",,"BO","-04:00","-17.6594809","-63.138466244608",NULL,"0","R","12845758"
"11125","VVC",,"Vanguardia Airport","VVC",,"CO","-05:00","4.1697006","-73.612729656051","8976","0","W","177514266"
"11124","VUP",,"Alfonso López Pumarejo Airport","VUP",,"CO","-04:00","10.4350238","-73.249099404499","8978","0","W","177517680"
"11123","VTZ",,"Vishakhapatnam, Vishakhapatnam","VTZ",,"IN","+05:30","17.720283","83.226554731923","7099","0","R","11701332"
"11122","VTE",,"Wattay International Airport","VTE",,"LA","+07:00","17.9866469","102.56389705741","7446","0","R","12306335"
"11121","VTB",,"Vitebsk, Vitebsk Arpt","VTB",,"BY","+03:00","55.12783625","30.354544554985","930","0","W","965573934"
"11120","VST",,"Stockholm-Västerås Airport","STO",,"SE","+02:00","59.5900081","16.631035416861","912","0","W","157551332"
"11119","VSG",,"Luhansk International Airport","VSG",,"UA","+03:00","48.41818755","39.374017570569","834","0","W","292221004"
"11118","VSE",,"Viseu, Viseu Arpt","VSE",,"PT","+01:00","40.7255251","-7.8876538847527","6829","0","W","613926186"
"11117","VSA",,"Carlos Rovirosa Pérez International Airport","VSA",,"MX","-06:00","17.9952401","-92.818798172899","7890","0","W","633924451"
"11116","VRO",,"Matanzas, Kawama Arpt","VRA",,"CU","-04:00","23.12346625","-81.301906009357","6853","0","W","352384638"
"11115","VRL",,"Vila Real Aerodrome","VRL",,"PT","+02:00","41.27430815","-7.7212137191384","5751","0","W","208261729"
"11114","VRK",,"Varkaus Airport","VRK",,"FI","+03:00","62.174745","27.866650053485","2554","0","W","257803408"
"11113","VRB",,"Vero Beach Municipal Airport","VRB",,"US","-05:00","27.65721495","-80.418329802474",NULL,"0","W","449455059"
"11112","VQS",,"Aeropuerto Antonio Rivera Rodríguez","VQS",,"US","-04:00","18.13462385","-65.49260790791","13815","0","W","204684213"
"11111","VPZ",,"Porter County Regional Airport","VPZ",,"US","-05:00","41.45664055","-87.007717318785",NULL,"0","W","41549138"
"11110","VPY",,"Chimoio, Chimoio Airport","VPY",,"MZ","+02:00","-19.14964795","33.429164665118","9234","0","W","631941384"
"11109","VPS",,"Eglin Air Force Base/Destin-Fort Walton Beach Airport","VPS",,"US","+00:00","30.48630535","-86.513388299862",NULL,"0","W","547153940"
"11108","VOZ",,"Voronezh International Airport","VOZ",,"RU","+03:00","51.8151081","39.221421059214","81","0","R","11210743"
"11107","VOL",,"Volos Airport","VOL",,"GR","+03:00","39.2210037","22.792762659482","7790","0","W","555957138"
"11106","VOG",,"Volgograd International Airport","VOG",,"RU","+03:00","48.78335465","44.347290075526","20","0","W","75208233"
"11105","VNY",,"Van Nuys Airport","LAX",,"US","-07:00","34.20713175","-118.4901483737","4527","0","R","6894703"
"11104","VNX",,"Vilanculos, Vilanculos Arpt","VNX",,"MZ","+02:00","-22.0167391","35.31339587961",NULL,"0","W","631939663"
"11103","VNT",,"Ventspils International Airport","VNT",,"LV","+03:00","57.35450815","21.539746382106","1985","0","R","2511602"
"11102","VNS",,"Lal Bahadur Shastri International Airport","VNS",,"IN","+05:45","25.4509975","82.863605235957","7103","0","W","26648704"
"11101","VNO",,"Vilnius International Airport","VNO",,"LT","+03:00","54.63483615","25.29031433044","472","0","R","3536240"
"11100","VNE",,"Vannes, Muecon Arpt","VNE",,"FR","+01:00","47.7241108","-2.7242453434798","2177","0","W","9927458"
"11099","VNC",,"Venice Municipal Airport","VNC",,"US","-05:00","27.07110535","-82.437051997008",NULL,"0","W","46974711"
"11098","VMU",,"Baimuru, Baimuru Airport","VMU",,"PG",,"-7.4972747","144.82143109559",NULL,"0","W","793760462"
"11097","VMI",,"Vallemi, Inc Arpt","VMI",,"PY",,"-22.1572873","-57.9436978961",NULL,"0","W","168397546"
"11096","VME",,"Villa Reynolds Airport","VME",,"AR",,"-33.72849815","-65.371961908313",NULL,"0","R","12104619"
"11095","VLY",,"RAF Valley - Anglesey Airport","VLY",,"GB","+00:00","53.248175","-4.536680520803",NULL,"0","W","367105666"
"11094","VLV",,"Valera, Carvajal Arpt","VLV",,"VE","-04:00","9.3411162","-70.584352611934","8599","0","W","957122656"
"11093","VLR",,"Vallenar Airport","VLR",,"CL","-03:00","-28.596016","-70.755082408593","11568","0","W","834099303"
"11092","VLO",,"Vallejo, Stolport Arpt","VLO",,"US","-07:00","0","0","4572","0",NULL,NULL
"11091","VLN",,"Arturo Michelena International Airport","VLN",,"VE","-04:00","10.15167685","-67.928815474788","8600","0","W","784961977"
"11090","VLL",,"Valladolid Airport","VLL",,"ES","+02:00","41.70683435","-4.85437427522","5966","0","R","1289205"
"11089","VLI",,"Port Vila, Bauerfield Arpt","VLI",,"VU","+11:00","-17.69913085","168.3193165665",NULL,"0","W","52246235"
"11088","VLG",,"Villa Gesell Airport","VLG",,"AR","-03:00","-37.2354653","-57.02709052863","8135","0","W","318093593"
"11087","VLE",,"Valle Airport","VLE",,"US",,"35.6529717","-112.15007653354",NULL,"0","W","395289164"
"11086","VLD",,"Valdosta Regional Airport","VLD",,"US","-04:00","30.77831025","-83.278034108593","3890","0","W","722727348"
"11085","VLC",,"Valencia Airport","VLC",,"ES","+02:00","39.4878647","-0.48120918609833","5757","0","W","178540364"
"11084","VKS",,"Vicksburg Municipal Airport","VKS",,"US",,"32.2393165","-90.9284387",NULL,"0","N","368386014"
"11083","VKG",,"Rach Gia Airport","VKG",,"VN","+07:00","9.9582452","105.13388804874","18220","0","W","485097172"
"11082","VJI",,"Virginia Highlands Airport","VJI",,"US",,"36.68706565","-82.034624326672",NULL,"0","W","808089096"
"11081","VIY",,"Villacoublay-Vélizy Air Base","PAR",,"FR","+02:00","48.7702775","2.2029939524793","500","0","W","28437757"
"11080","VIX",,"Eurico de Aguiar Salles Airport","VIX",,"BR","-03:00","-20.25609295","-40.281357181926","8346","0","W","27145546"
"11079","VIT",,"Vitoria Airport","VIT",,"ES","+01:00","42.88306505","-2.7280438388099",NULL,"0","W","401784782"
"11078","VIS",,"Visalia Municipal Airport","VIS",,"US","-07:00","36.3161377","-119.39042842451","4573","0","W","44581296"
"11077","VIR",,"Durban, Virginia Arpt","DUR",,"ZA","+02:00","-29.7707202","31.057947978149","8073","0","W","815159681"
"11076","VIN",,"Havryshivka Vinnytsia International Airport","VIN",,"UA","+02:00","49.231621","28.56319",NULL,"0","R","11495551"
"11075","VIL",,"Dakhla International Airport","VIL",,"MA","+00:00","23.72474405","-15.927466161127",NULL,"0","R","13532057"
"11074","VIJ",,"Virgin Gorda Airport","VIJ",,"VG","-04:00","18.4466072","-64.427900188819",NULL,"0","W","680566311"
"11073","VII",,"Vinh City, Vinh City Arpt","VII",,"VN","+07:00","18.73892645","105.67053390491",NULL,"0","W","585991360"
"11072","VIG",,"Juan Pablo Pérez Alfonso International Airport","VIG",,"VE","-04:00","8.62391785","-71.671325083022",NULL,"0","W","785176496"
"11071","VIF",,"Vieste, Vieste Arpt","VIF",,"IT",,"0","0",NULL,"0",NULL,NULL
"11070","VIC",,"Vicenza, Vicenza Arpt","VIC",,"IT","+02:00","45.575279","11.526389","4845","0",NULL,NULL
"11069","VIB",,"Villa Constitucion, Villa Constitucion Arpt","VIB",,"MX",,"0","0",NULL,"0",NULL,NULL
"11068","VHY",,"Vichy, Charmeil Arpt","VHY",,"FR","+02:00","46.1702041","3.4031454015741","2168","0","W","42019327"
"11067","VHN",,"Culberson County Airport","VHN",,"US",,"31.06351195","-104.78191684366",NULL,"0","W","621351869"
"11066","VHM",,"Vilhelmina Airport","VHM",,"SE","+03:00","64.5791071","16.835971374498","11365","0","W","491623829"
"11065","VGZ",,"Villagarzon, Villagarzon Arpt","VGZ",,"CO","-05:00","0.98126905","-76.604223984017",NULL,"0","R","9729265"
"11064","VGT",,"North Las Vegas Airport","LAS",,"US","-07:00","36.2101116","-115.19604695662","4598","0","W","727544146"
"11063","VGO",,"Vigo Airport","VGO",,"ES","+01:00","42.23292245","-8.6261660791295","5961","0","W","35322541"
"11062","VGD",,"Vologda Airport","VGD",,"RU","+03:00","59.28111415","39.939312077666","292","0","W","75208055"
"11061","VGA",,"Vijayawada Airport","VGA",,"IN","+05:30","16.5315766","80.802950354889","7100","0","W","178105923"
"11060","VFA",,"Victoria Falls International Airport","VFA",,"ZW","+02:00","-18.09691455","25.842015202819",NULL,"0","W","266151526"
"11059","VEY",,"Vestmannaeyjar Airport","VEY",,"IS","+00:00","63.42546055","-20.278156148378","16800","0","W","564047342"
"11058","VER",,"General Heriberto Jara Corona International Airport","VER",,"MX","-05:00","19.1360387","-96.186070633379","7891","0","W","370681237"
"11057","VEL",,"Vernal Airport","VEL",,"US","-07:00","40.43530255","-109.51160526694",NULL,"0","W","409628458"
"11056","VDZ",,"Valdez Pioneer Field","VDZ",,"US","-09:00","61.13370255","-146.24665194844",NULL,"0","W","181375612"
"11055","VDS",,"Vadsø Airport","VDS",,"NO","+01:00","70.0649621","29.846431239541",NULL,"0","W","411359425"
"11054","VDM",,"Viedma, Viedma Arpt","VDM",,"AR","-03:00","-40.86553825","-63.00561489975","8162","0","W","145785812"
"11053","VDI",,"Vidalia Regional Airport","VDI",,"US",,"32.1928836","-82.370584621364",NULL,"0","W","388136840"
"11052","VDH",,"Dong Hoi, Dong Hoi Airport","VDH",,"VN","+07:00","17.5126028","106.59339515793","18213","0","W","241574727"
"11051","VDE",,"El Hierro Airport","VDE",,"ES","+00:00","27.81366785","-17.885867218202",NULL,"0","W","52323651"
"11050","VDD",,"Vienna, Vienna Danubepier Hov","VIE",,"AT","+02:00","0","0","751","0",NULL,NULL
"11049","VDC",,"Vitoria Da Conquista, Vitoria Da Conquista Arpt","VDC",,"BR","-03:00","-14.90817835","-40.915883207839","8345","0","W","262607712"
"11048","VDB",,"Fagernes Airport, Leirin","VDB",,"NO","+02:00","61.01064445","9.2927201382806","14355","0","W","383130659"
"11047","VDA",,"Ovda Airbase","VDA",,"IL","+02:00","29.9391304","34.938488860448",NULL,"0","W","150895887"
"11046","VCV",,"Southern California Logistics Airport","VCV",,"US","-08:00","34.59973495","-117.38180814836",NULL,"0","W","787664017"
"11045","VCT",,"Victoria Regional Airport","VCT",,"US","-06:00","28.8540778","-96.918120680313",NULL,"0","W","366078373"
"11044","VCS",,"Con Dao Airport","VCS",,"VN","+07:00","8.7328562","106.63148404906","18191","0","W","62060973"
"11042","VCL",,"Chu Lai Airport","VCL",,"VN","+07:00","15.4075042","108.71255347667",NULL,"0","W","241932956"
"11041","VCA",,"Can Tho International Airport","VCA",,"VN","+07:00","10.08293405","105.71208943005","18204","0","W","169186384"
"11040","VBY",,"Visby Airport","VBY",,"SE","+02:00","57.66543765","18.347058551496","6889","0","W","463605852"
"11039","VBG",,"Vandenberg Air Force Base","LPC",,"US","-08:00","34.73835455","-120.5826245702",NULL,"0","W","133586308"
"11038","VAW",,"Vardø Airport, Svartnes","VAW",,"NO","+01:00","70.35480945","31.046282270771",NULL,"0","W","382900620"
"11037","VAV",,"Vava'u International Airport","VAV",,"TO","+13:00","-18.58558155","-173.96370473156",NULL,"0","W","255426575"
"11036","VAS",,"Sivas, Sivas Arpt","VAS",,"TR","+03:00","39.8128659","36.899709011982","6451","0","W","100706996"
"11035","VAR",,"Varna Airport","VAR",,"BG","+03:00","43.23393595","27.823302199296","7697","0","R","12698054"
"11034","VAN",,"Ferit Melen International Airport","VAN",,"TR","+04:00","38.46787005","43.330416009335","6435","0","W","130008380"
"11033","VAI",,"Vanimo, Vanimo Arpt","VAI",,"PG","+10:00","-2.69197705","141.3021206745",NULL,"0","W","920925439"
"11032","VAG",,"Varginha, Maj Brig Trompowsky Arpt","VAG",,"BR","-03:00","-21.59120195","-45.474018569416",NULL,"0","W","136139357"
"11031","VAF",,"Valence, Chabeuil Airport","VAF",,"FR","+01:00","44.92211625","4.9700703742516",NULL,"0","W","186769825"
"11030","VAD",,"Moody Air Force Base","VLD",,"US","-04:00","30.9665427","-83.189412784368","3890","0","R","7384858"
"11029","VAA",,"Vaasa Airport","VAA",,"FI","+03:00","63.0449579","21.7641844","2558","0","N","59835028"
"11028","UZC",,"Ponikve Airport","UZC",,"RS","+02:00","43.8993239","19.682303078045","9619","0","R","12714237"
"11027","UYN",,"Yulin Yuyang Airport","UYN",,"CN","+08:00","38.35981235","109.59582462734",NULL,"0","W","167714045"
"11026","UVL",,"Kharga, Kharga Arpt","UVL",,"EG",,"25.46922955","30.58597099133",NULL,"0","W","626040988"
"11025","UVF",,"Vieux Fort St Lucia, Hewanorra Arpt","SLU",,"LC","-04:00","13.7342774","-60.953884201298","9586","0","W","360087481"
"11024","UVA",,"Garner Field","UVA",,"US","-06:00","29.2124834","-99.742004977458",NULL,"0","W","140154454"
"11023","UUS",,"Airport Yuzhno-Sakhalinsk","UUS",,"RU","+11:00","46.8845008","142.72048538333","40","0","R","6143454"
"11022","UUK",,"Ugnu-Kuparuk Airport","UUK",,"US","-09:00","70.33074095","-149.59715360443",NULL,"0","W","245208682"
"11021","UUD",,"Baikal Airport","UUD",,"RU","+08:00","51.80990495","107.44900751453","66","0","R","3903662"
"11020","UTW",,"Queenstown, Queenstown Airport","UTW",,"ZA","+02:00","-31.9203691","26.881912987397","8046","0","W","814112849"
"11019","UTT",,"Mthatha Airport","UTT",,"ZA","+02:00","-31.5475715","28.676140167523","10693","0","W","104983994"
"11018","UTP",,"UTP U-Tapao - Pattaya International airport","UTP",,"TH","+07:00","12.68476815","101.00934297866",NULL,"0","W","307565962"
"11017","UTN",,"Upington, Upington Airport","UTN",,"ZA","+02:00","-28.40250055","21.258342366011","8036","0","W","212394214"
"11016","UTM",,"Tunica Municipal Airport","UTM",,"US","-06:00","34.685394","-90.349415116103",NULL,"0","W","486850066"
"11015","UTI",,"Utti Airfield","UTI",,"FI","+03:00","60.8968577","26.9338175","2588","0","N","365622709"
"11014","UTH",,"Udon Thani International Airport","UTH",,"TH","+07:00","17.3867791","102.7775596","7627","0","N","285994845"
"11013","UTC",,"Utrecht, Soesterberg Arpt","UTC",,"NL","+02:00","0","0","6152","0",NULL,NULL
"11012","UTA",,"Mutare Airport","UTA",,"ZW","+02:00","-18.9969814","32.627192017532","8733","0","W","451713581"
"11011","USU",,"Francisco B. Reyes Airport","USU",,"PH","+08:00","12.12102115","120.09589025372","12353","0","W","152008514"
"11010","UST",,"Northeast Florida Regional Airport","UST",,"US","-05:00","29.96073255","-81.342427027706",NULL,"0","W","132895608"
"11009","USS",,"Sancti Spiritus, Sancti Spiritus Arpt","USS",,"CU","-04:00","21.9697659","-79.443673803518","6858","0","W","844411592"
"11008","USN",,"Ulsan Airport","USN",,"KR","+09:00","35.59354455","129.35281154703","6350","0","W","186906615"
"11007","USM",,"Samui International Airport","USM","ТХ","TH","+07:00","9.5488263","100.06319930634","30048","0","W","476938595"
"11006","USL",,"Useless Loop Airstrip","USL",,"AU",,"0","0",NULL,"0","W","1144156051"
"11005","USK",,"Usinsk Airport","USK",,"RU","+03:00","66.00111365","57.372824699974","729","0","W","75207987"
"11004","USH",,"Malvinas Argentinas Airport","USH",,"AR","-03:00","-54.84157295","-68.308586330551","8165","0","W","254567736"
"11003","URY",,"Gurayat Domestic Airport","URY",,"SA","+03:00","31.4110571","37.2752595",NULL,"0","N","1025855287"
"11002","URT",,"Surat Thani Airport","URT",,"TH","+07:00","9.1340248","99.141978468734","7604","0","R","13881380"
"11001","URS",,"Kursk Vostochny Airport","URS",,"RU","+03:00","51.7520596","36.292539281416","101","0","R","14229362"
"11000","URR",,"Urrao, Urrao Arpt","URR",,"CI",,"0","0",NULL,"0",NULL,NULL
"10999","URO",,"Rouen, Boos Airport","URO",,"FR","+02:00","49.3850152","1.1833604631447","2243","0","W","42019304"
"10998","URG",,"Ruben Berta International Airport","URG",,"BR","-03:00","-29.782747","-57.03777922067",NULL,"0","W","123326501"
"10997","URE",,"Kuressaare Airport","URE",,"EE","+03:00","58.2345785","22.509133246066","475","0","W","325773515"
"10996","URC",,"Ürümqi Diwopu International Airport","URC",,"CN","+06:00","43.90381835","87.468018887874","3472","0","W","37426993"
"10995","URA",,"Oral Ak Zhol Airport","URA",,"KZ","+05:00","51.15188705","51.541522050576","456","0","R","11545993"
"10994","UPN",,"Uruapan International Airport","UPN",,"MX","-06:00","19.3985559","-102.03913561188",NULL,"0","W","867182919"
"10993","UPG",,"Sultan Hasanuddin International Airport","UPG",,"ID","+08:00","-5.07667015","119.55301434823",NULL,"0","R","8317866"
"10992","UOX",,"University-Oxford Airport","UOX",,"US","+00:00","34.3826893","-89.53205882081",NULL,"0","W","143299870"
"10991","UNT",,"Unst","UNT",,"GB","+00:00","60.7475983","-0.8532495",NULL,"0","N","3809382958"
"10990","UNS",,"Umnak Island, Umnak Island Arpt","UMB",,"US",,"0","0",NULL,"0",NULL,NULL
"10989","UNN",,"Ranong Airport","UNN",,"TH","+07:00","9.77730695","98.586319922844","7607","0","W","527810154"
"10988","UNK",,"Unalakleet Airport","UNK",,"US","-09:00","63.89088885","-160.80106902453",NULL,"0","W","507868672"
"10987","UNI",,"Union Island International Airport","UNI",,"VC","-04:00","12.6002486","-61.412350802061",NULL,"0","W","485461659"
"10986","UNA",,"Una Br, Una Airport","UNA",,"BR","-03:00","-15.35574585","-38.998548167088",NULL,"0","W","956519562"
"10985","UMY",,"Sumy Airport","UMY",,"UA","+03:00","50.859246","34.76592736333","927","0","R","7402324"
"10984","UMU",,"Umuarama, Ernesto Geisel Arpt","UMU",,"BR","-03:00","-23.79942525","-53.314451629851",NULL,"0","W","316163606"
"10983","UMT",,"Umiat Airport","UMT",,"US",,"69.3707804","-152.1390961",NULL,"0","N","369145272"
"10982","UMM",,"Summit Airport","UMM",,"US",,"63.3314","-149.1272",NULL,"0","N","369144850"
"10981","UME",,"Umeå Airport","UME",,"SE","+03:00","63.7903095","20.288655093671","11267","0","W","134382751"
"10980","UMB",,"Umnak Island, Umnak Arpt","UMB",,"US",,"0","0",NULL,"0",NULL,NULL
"10979","ULP",,"Quilpie Airport","ULP",,"AU","+10:00","-26.6116208","144.2559541",NULL,"0","N","1042097856"
"10978","ULN",,"Buyant-Ukhaa International Airport","ULN",,"MN","+08:00","47.84297625","106.76675617319","733","0","W","28902695"
"10977","ULM",,"New Ulm Municipal Airport","ULM",,"US","-05:00","44.31641545","-94.500469406876","4293","0","W","200517759"
"10976","ULC",,"Santiago, Los Cerrillos","SCL",,"CL","-04:00","0","0","9832","0",NULL,NULL
"10975","UKY",,"Kyoto, Kyoto Arpt","UKY",,"JP","+09:00","0","0","10052","0",NULL,NULL
"10974","UKT",,"Quakertown Airport","UKT",,"US","-05:00","40.436819","-75.380179353231",NULL,"0","W","622024320"
"10973","UKS",,"Sevastopol International Airport","UKS",,"RU","+03:00","0","0","688","0","R","7128542"
"10972","UKK",,"Oskemen Airport","UKK",,"KZ","+07:00","50.03431115","82.499127734373","457","0","W","567629279"
"10971","UKI",,"Ukiah Municipal Airport","UKI",,"US","-07:00","39.12728615","-123.20207057777","4570","0","W","26322863"
"10970","UKB",,"Kobe Airport","UKB",,"JP","+09:00","34.63428055","135.22785050799","10531","0","W","772669000"
"10969","UKA",,"Ukunda","UKA",,"KE","+03:00","-4.29273975","39.571491759142","16319","0","W","182419650"
"10968","UIZ",,"Detroit, Berz Macomb Arpt","DTT",,"US","-04:00","0","0","4248","0",NULL,NULL
"10967","UIR",,"Quirindi, Quirindi Arpt","UIR",,"AU",,"0","0",NULL,"0",NULL,NULL
"10966","UIP",,"Quimper, Pluguffan Arpt","UIP",,"FR","+01:00","47.9714067","-4.1704584829518","2261","0","W","42019257"
"10965","UIO",,"Mariscal Sucre International Airport","UIO",,"EC","-05:00","-0.1272117","-78.35809738942","9874","0","W","214256485"
"10964","UIN",,"Quincy Regional Airport","UIN",,"US","-06:00","39.9447505","-91.193789417855",NULL,"0","W","188244336"
"10963","UII",,"Utila, Utila Arpt","UII",,"HN","-06:00","16.11322515","-86.880269003885","17997","0","W","514200704"
"10962","UIH",,"Phu Cat Airport","UIH",,"VN","+07:00","13.95912425","109.04963163926","6648","0","W","237186082"
"10961","UIB",,"El Caraño Airport","UIB",,"CO","-05:00","5.6899964","-76.639709155395","8990","0","W","568042462"
"10960","UHE",,"Kunovice Airport","UHE",,"CZ","+02:00","49.03290305","17.441398282178","6286","0","W","39673568"
"10959","UGN",,"Waukegan National Airport","UGN",,"US","-05:00","42.42100275","-87.867483670309","4180","0","W","120261036"
"10958","UGC",,"«Urgench» International Airport","UGC",,"UZ","+05:00","41.58105105","60.645062875435","463","0","R","2233621"
"10957","UGB",,"Ugashik Bay Airport","PIP",,"US",,"57.4250005","-157.7448399",NULL,"0","N","369144966"
"10956","UEO",,"Kume Jima, Kumejima Arpt","UEO",,"JP","+09:00","26.36393545","126.71592065696",NULL,"0","W","728246481"
"10955","UEL",,"Quelimane, Quelimane Arpt","UEL",,"MZ","+02:00","-17.8547988","36.870216010432","9226","0","W","269729702"
"10954","UEE",,"Queenstown Airport","UEE",,"AU",,"-42.07478155","145.52564700738",NULL,"0","W","399567900"
"10953","UDR",,"Udaipur, Maharana Pratap Arpt","UDR",,"IN","+05:00","24.61747795","73.895364935755","7107","0","R","13738248"
"10952","UDN",,"Udine-Campoformido Air Base","UDN",,"IT","+02:00","46.0316393","13.183204516224","4855","0","W","254907238"
"10951","UDJ",,"Uzhhorod International Airport","UDJ",,"UA","+03:00","48.63582435","22.260689628692","938","0","R","12500859"
"10950","UDI",,"Uberlândia Airport","UDI",,"BR","-03:00","-18.88227365","-48.224798319612","18583","0","R","6265278"
"10949","UDE",,"Volkel Air Base","UDE",,"NL","+02:00","51.65830935","5.6980151839069","6153","0","W","946556911"
"10948","UDD",,"Bermuda Dunes Airport","UDD",,"US","-07:00","33.7479089","-116.27382147855","3858","0","R","2561613"
"10947","UCT",,"Ukhta Airport","UCT",,"RU","+03:00","63.56549785","53.807875028843","243","0","W","75690395"
"10946","UCK",,"Lutsk Airport","UCK",,"UA","+03:00","50.68243","25.485109","1818","0","W","756067828"
"10945","UCA",,"Utica, Oneida County Arpt","UCA",,"US",,"0","0",NULL,"0",NULL,NULL
"10944","UBS",,"Columbus-Lowndes County Airport","UBS",,"US","-06:00","33.4653968","-88.3803166",NULL,"0","N","368386089"
"10943","UBP",,"Ubon Ratchathani Airport","UBP",,"TH","+07:00","15.2536783","104.86906426653","12945","0","W","295455197"
"10942","UBJ",,"Yamaguchi-Ube Airport","UBJ",,"JP","+09:00","33.9294836","131.27519368983","9948","0","W","57010586"
"10941","UBA",,"Uberaba, Uberaba Airport","UBA",,"BR","-03:00","-19.762897","-47.965976077346","8356","0","W","126265014"
"10940","UAS",,"Samburu, Samburu Airstrip","UAS",,"KE","+03:00","0.53298355","37.533664544232",NULL,"0","W","1004355537"
"10939","UAQ",,"Domingo Faustino Sarmiento Airport","UAQ",,"AR","-03:00","-31.5731474","-68.420258749971","8173","0","R","12853017"
"10937","UAK",,"Narsarsuaq Airport","UAK",,"GL","-03:00","61.16046545","-45.425362981565",NULL,"0","W","414489265"
"10936","UAC",,"San Luis Río Colorado Airport","UAC",,"MX","-07:00","32.44445155","-114.79791985877","7965","0","W","613972514"
"10935","TZX",,"Trabzon International Airport","TZX",,"TR","+04:00","40.99444235","39.789038496161","6561","0","W","132928025"
"10934","TZN",,"Congo Town Airport","TZN",,"BS",,"24.15907255","-77.591317047526",NULL,"0","W","476480736"
"10933","TZM",,"Tizimin, Tizimin Arpt","TZM",,"MX","-05:00","21.15550795","-88.172374382394","7899","0","W","938759220"
"10932","TZL",,"Tuzla International Airport","TZL",,"BA","+02:00","44.4625583","18.724443064899","8260","0","W","772008950"
"10931","TZA",,"Belize City Municipal Airport","BZE",,"BZ","-06:00","17.51740165","-88.196886531654","8236","0","W","375971448"
"10930","TYZ",,"Taylor Airport","TYZ",,"US",,"34.45143875","-110.11645561432",NULL,"0","W","509300626"
"10929","TYS",,"McGhee Tyson Airport","TYS",,"US","-05:00","35.809553","-83.998848104312",NULL,"0","W","224518629"
"10928","TYR",,"Tyler Pounds Regional Airport","TYR",,"US","-05:00","32.35190965","-95.402087560616","4083","0","W","299950674"
"10927","TYN",,"Taiyuan Wusu International Airport","TYN",,"CN","+08:00","37.748865","112.62149472956","3540","0","W","179987291"
"10926","TYF",,"Torsby, Torsby Airport","TYF",,"SE","+01:00","60.16047515","12.989099530643",NULL,"0","W","189639928"
"10925","TYE",,"Tyonek Airport","TYE",,"US",,"61.0722375","-151.135008",NULL,"0","N","369145275"
"10924","TXN",,"Huangshan Tunxi International Airport","TXN",,"CN","+08:00","29.73328205","118.25567849391","3533","0","W","184879660"
